{"type": "FeatureCollection", "features": [{"type": "Feature", "geometry": {"type": "Point", "coordinates": [12.7, 56.05]}, "properties": {"description": "Helsingborg", "name": "Helsingborg"}}, {"type": "Feature", "geometry": {"type": "Point", "coordinates": [9.20105, 55.62955]}, "properties": {"description": "Jylland", "name": "Jylland"}}, {"type": "Feature", "geometry": {"type": "Point", "coordinates": [12.568888888889, 55.676111111111]}, "properties": {"description": "K\u00f6penhamn", "name": "K\u00f6penhamn"}}, {"type": "Feature", "geometry": {"type": "Point", "coordinates": [12.75, 55.75]}, "properties": {"description": "\u00d6resund", "name": "\u00d6resund"}}, {"type": "Feature", "geometry": {"type": "Point", "coordinates": [8.8088888888889, 53.076944444444]}, "properties": {"description": "Bremen", "name": "Bremen"}}, {"type": "Feature", "geometry": {"type": "Point", "coordinates": [10.355833, 55.350278]}, "properties": {"description": "Fyn", "name": "Fyn"}}, {"type": "Feature", "geometry": {"type": "Point", "coordinates": [11.75, 55.5]}, "properties": {"description": "Sj\u00e4lland", "name": "Sj\u00e4lland"}}, {"type": "Feature", "geometry": {"type": "Point", "coordinates": [16.0, 56.3]}, "properties": {"description": "Br\u00f6msebro", "name": "Br\u00f6msebro"}}, {"type": "Feature", "geometry": {"type": "Point", "coordinates": [10.686388888889, 53.869722222222]}, "properties": {"description": "L\u00fcbeck", "name": "L\u00fcbeck"}}, {"type": "Feature", "geometry": {"type": "Point", "coordinates": [9.66667, 54.1667]}, "properties": {"description": "Holstein", "name": "Holstein"}}], "crs": {"type": "name", "properties": {"name": "urn:ogc:def:crs:OGC:2:84"}}, "bbox": [8.8088888888889, 8.8088888888889, 56.3, 56.3]}