{"type": "FeatureCollection", "features": [{"type": "Feature", "geometry": {"type": "Point", "coordinates": [14.474722222222, 48.974722222222]}, "properties": {"description": "\u010cesk\u00e9 Bud\u011bjovice", "name": "\u010cesk\u00e9 Bud\u011bjovice"}}, {"type": "Feature", "geometry": {"type": "Point", "coordinates": [13.3825, 49.741388888889]}, "properties": {"description": "Plze\u0148", "name": "Plze\u0148"}}, {"type": "Feature", "geometry": {"type": "Point", "coordinates": [17.0, 49.5]}, "properties": {"description": "M\u00e4hren", "name": "M\u00e4hren"}}, {"type": "Feature", "geometry": {"type": "Point", "coordinates": [14.730787763268, 49.653005756667]}, "properties": {"description": "Jankov", "name": "Jankov"}}, {"type": "Feature", "geometry": {"type": "Point", "coordinates": [14.421388888889, 50.088611111111]}, "properties": {"description": "Prag", "name": "Prag"}}, {"type": "Feature", "geometry": {"type": "Point", "coordinates": [12.231111111111, 51.868888888889]}, "properties": {"description": "Mulde", "name": "Mulde"}}, {"type": "Feature", "geometry": {"type": "Point", "coordinates": [14.657835974031, 49.414485338494]}, "properties": {"description": "T\u00e1bor", "name": "T\u00e1bor"}}], "crs": {"type": "name", "properties": {"name": "urn:ogc:def:crs:OGC:2:84"}}, "bbox": [12.231111111111, 12.231111111111, 50.088611111111, 50.088611111111]}