{"type": "FeatureCollection", "features": [{"type": "Feature", "geometry": {"type": "Point", "coordinates": [16.366666666667, 56.666666666667]}, "properties": {"description": "Kalmar", "name": "Kalmar"}}, {"type": "Feature", "geometry": {"type": "Point", "coordinates": [18.068611111111, 59.329444444444]}, "properties": {"description": "Stockholm", "name": "Stockholm"}}, {"type": "Feature", "geometry": {"type": "Point", "coordinates": [10.0, 56.0]}, "properties": {"description": "Danmark", "name": "Danmark"}}, {"type": "Feature", "geometry": {"type": "Point", "coordinates": [18.633333333333, 54.366666666667]}, "properties": {"description": "Gda\u0144sk", "name": "Gda\u0144sk"}}, {"type": "Feature", "geometry": {"type": "Point", "coordinates": [37.617777777778, 55.755833333333]}, "properties": {"description": "Moskva", "name": "Moskva"}}, {"type": "Feature", "geometry": {"type": "Point", "coordinates": [18.070555555556, 59.325833333333]}, "properties": {"description": "Storkyrkan", "name": "Storkyrkan"}}, {"type": "Feature", "geometry": {"type": "Point", "coordinates": [18.329444444444, 59.405277777778]}, "properties": {"description": "Vaxholm", "name": "Vaxholm"}}], "crs": {"type": "name", "properties": {"name": "urn:ogc:def:crs:OGC:2:84"}}, "bbox": [10.0, 10.0, 59.405277777778, 59.405277777778]}