{"type": "FeatureCollection", "features": [{"type": "Feature", "geometry": {"type": "Point", "coordinates": [12.383333333333, 51.333333333333]}, "properties": {"description": "Leipzig", "name": "Leipzig"}}, {"type": "Feature", "geometry": {"type": "Point", "coordinates": [14.421388888889, 50.088611111111]}, "properties": {"description": "Prag", "name": "Prag"}}, {"type": "Feature", "geometry": {"type": "Point", "coordinates": [16.373064, 48.20833]}, "properties": {"description": "Wien", "name": "Wien"}}, {"type": "Feature", "geometry": {"type": "Point", "coordinates": [13.733333333333, 51.033333333333]}, "properties": {"description": "Dresden", "name": "Dresden"}}, {"type": "Feature", "geometry": {"type": "Point", "coordinates": [14.331944444444, 50.083055555556]}, "properties": {"description": "Vita berget", "name": "Vita berget"}}], "crs": {"type": "name", "properties": {"name": "urn:ogc:def:crs:OGC:2:84"}}, "bbox": [12.383333333333, 12.383333333333, 51.333333333333, 51.333333333333]}