{"type": "FeatureCollection", "features": [{"type": "Feature", "geometry": {"type": "Point", "coordinates": [12.383333333333, 51.333333333333]}, "properties": {"description": "Leipzig", "name": "Leipzig"}}, {"type": "Feature", "geometry": {"type": "Point", "coordinates": [14.421388888889, 50.088611111111]}, "properties": {"description": "Prag", "name": "Prag"}}, {"type": "Feature", "geometry": {"type": "Point", "coordinates": [16.373064, 48.20833]}, "properties": {"description": "Wien", "name": "Wien"}}, {"type": "Feature", "geometry": {"type": "Point", "coordinates": [15.616666666667, 48.416666666667]}, "properties": {"description": "Krems an der Donau", "name": "Krems an der Donau"}}, {"type": "Feature", "geometry": {"type": "Point", "coordinates": [12.2, 49.3]}, "properties": {"description": "Oberpfalz", "name": "Oberpfalz"}}, {"type": "Feature", "geometry": {"type": "Point", "coordinates": [14.0, 48.0]}, "properties": {"description": "\u00d6sterrike", "name": "\u00d6sterrike"}}, {"type": "Feature", "geometry": {"type": "Point", "coordinates": [14.0, 48.2]}, "properties": {"description": "Ober\u00f6sterreich", "name": "Ober\u00f6sterreich"}}, {"type": "Feature", "geometry": {"type": "Point", "coordinates": [13.466666666667, 48.566666666667]}, "properties": {"description": "Passau", "name": "Passau"}}, {"type": "Feature", "geometry": {"type": "Point", "coordinates": [14.283333333333, 48.3]}, "properties": {"description": "Linz", "name": "Linz"}}, {"type": "Feature", "geometry": {"type": "Point", "coordinates": [15.166666666667, 47.25]}, "properties": {"description": "Steiermark", "name": "Steiermark"}}, {"type": "Feature", "geometry": {"type": "Point", "coordinates": [11.431111111111, 48.7775]}, "properties": {"description": "Bayern", "name": "Bayern"}}, {"type": "Feature", "geometry": {"type": "Point", "coordinates": [8.4311111111111, 49.319444444444]}, "properties": {"description": "Speyer", "name": "Speyer"}}, {"type": "Feature", "geometry": {"type": "Point", "coordinates": [8.71, 49.412222222222]}, "properties": {"description": "Heidelberg", "name": "Heidelberg"}}, {"type": "Feature", "geometry": {"type": "Point", "coordinates": [11.4, 47.266666666667]}, "properties": {"description": "Tyrolen", "name": "Tyrolen"}}], "crs": {"type": "name", "properties": {"name": "urn:ogc:def:crs:OGC:2:84"}}, "bbox": [8.4311111111111, 8.4311111111111, 51.333333333333, 51.333333333333]}