{"type": "FeatureCollection", "features": [{"type": "Feature", "geometry": {"type": "Point", "coordinates": [17.112777777778, 48.144722222222]}, "properties": {"description": "Bratislava", "name": "Bratislava"}}, {"type": "Feature", "geometry": {"type": "Point", "coordinates": [9.4763888888889, 53.600833333333]}, "properties": {"description": "Stade", "name": "Stade"}}, {"type": "Feature", "geometry": {"type": "Point", "coordinates": [16.333055555556, 48.345277777778]}, "properties": {"description": "Korneuburg", "name": "Korneuburg"}}, {"type": "Feature", "geometry": {"type": "Point", "coordinates": [4.5, 51.0]}, "properties": {"description": "Flandern", "name": "Flandern"}}, {"type": "Feature", "geometry": {"type": "Point", "coordinates": [9.2166666666667, 49.15]}, "properties": {"description": "Heilbronn", "name": "Heilbronn"}}, {"type": "Feature", "geometry": {"type": "Point", "coordinates": [9.1333333333333, 53.483333333333]}, "properties": {"description": "Bremerv\u00f6rde", "name": "Bremerv\u00f6rde"}}, {"type": "Feature", "geometry": {"type": "Point", "coordinates": [10.0, 53.55]}, "properties": {"description": "Hamburg", "name": "Hamburg"}}, {"type": "Feature", "geometry": {"type": "Point", "coordinates": [14.421388888889, 50.088611111111]}, "properties": {"description": "Prag", "name": "Prag"}}, {"type": "Feature", "geometry": {"type": "Point", "coordinates": [16.373064, 48.20833]}, "properties": {"description": "Wien", "name": "Wien"}}, {"type": "Feature", "geometry": {"type": "Point", "coordinates": [15.616666666667, 48.416666666667]}, "properties": {"description": "Krems an der Donau", "name": "Krems an der Donau"}}, {"type": "Feature", "geometry": {"type": "Point", "coordinates": [16.3089, 48.3792]}, "properties": {"description": "Burg Kreuzenstein", "name": "Burg Kreuzenstein"}}, {"type": "Feature", "geometry": {"type": "Point", "coordinates": [7.9408333333333, 48.470833333333]}, "properties": {"description": "Offenburg", "name": "Offenburg"}}, {"type": "Feature", "geometry": {"type": "Point", "coordinates": [13.733333333333, 51.033333333333]}, "properties": {"description": "Dresden", "name": "Dresden"}}, {"type": "Feature", "geometry": {"type": "Point", "coordinates": [9.6644444444444, 54.304444444444]}, "properties": {"description": "Rendsburg", "name": "Rendsburg"}}, {"type": "Feature", "geometry": {"type": "Point", "coordinates": [8.0492, 48.766]}, "properties": {"description": "Stollhofen", "name": "Stollhofen"}}, {"type": "Feature", "geometry": {"type": "Point", "coordinates": [10.0, 56.0]}, "properties": {"description": "Danmark", "name": "Danmark"}}, {"type": "Feature", "geometry": {"type": "Point", "coordinates": [9.15, 53.1]}, "properties": {"description": "Ottersberg", "name": "Ottersberg"}}, {"type": "Feature", "geometry": {"type": "Point", "coordinates": [3.175, 42.263333]}, "properties": {"description": "Roses", "name": "Roses"}}, {"type": "Feature", "geometry": {"type": "Point", "coordinates": [11.616666666667, 52.133333333333]}, "properties": {"description": "Magdeburg", "name": "Magdeburg"}}, {"type": "Feature", "geometry": {"type": "Point", "coordinates": [0.63333333333333, 41.616666666667]}, "properties": {"description": "Lleida", "name": "Lleida"}}, {"type": "Feature", "geometry": {"type": "Point", "coordinates": [13.466666666667, 48.566666666667]}, "properties": {"description": "Passau", "name": "Passau"}}, {"type": "Feature", "geometry": {"type": "Point", "coordinates": [2.8333333333333, 49.5]}, "properties": {"description": "Picardie", "name": "Picardie"}}, {"type": "Feature", "geometry": {"type": "Point", "coordinates": [14.657835974031, 49.414485338494]}, "properties": {"description": "T\u00e1bor", "name": "T\u00e1bor"}}, {"type": "Feature", "geometry": {"type": "Point", "coordinates": [9.7011111111111, 53.476944444444]}, "properties": {"description": "Buxtehude", "name": "Buxtehude"}}, {"type": "Feature", "geometry": {"type": "Point", "coordinates": [9.3969444444444, 53.106944444444]}, "properties": {"description": "Rotenburg", "name": "Rotenburg"}}, {"type": "Feature", "geometry": {"type": "Point", "coordinates": [13.358888888889, 51.026944444444]}, "properties": {"description": "Sachsen", "name": "Sachsen"}}, {"type": "Feature", "geometry": {"type": "Point", "coordinates": [8.005, 48.726111111111]}, "properties": {"description": "Lichtenau", "name": "Lichtenau"}}], "crs": {"type": "name", "properties": {"name": "urn:ogc:def:crs:OGC:2:84"}}, "bbox": [0.63333333333333, 0.63333333333333, 56.0, 56.0]}