{"type": "FeatureCollection", "features": [{"type": "Feature", "geometry": {"type": "Point", "coordinates": [17.112777777778, 48.144722222222]}, "properties": {"description": "Bratislava", "name": "Bratislava"}}, {"type": "Feature", "geometry": {"type": "Point", "coordinates": [12.083333333333, 49.016666666667]}, "properties": {"description": "Regensburg", "name": "Regensburg"}}, {"type": "Feature", "geometry": {"type": "Point", "coordinates": [16.333055555556, 48.345277777778]}, "properties": {"description": "Korneuburg", "name": "Korneuburg"}}, {"type": "Feature", "geometry": {"type": "Point", "coordinates": [12.083333333333, 50.1]}, "properties": {"description": "Thierstein", "name": "Thierstein"}}, {"type": "Feature", "geometry": {"type": "Point", "coordinates": [10.0, 53.55]}, "properties": {"description": "Hamburg", "name": "Hamburg"}}, {"type": "Feature", "geometry": {"type": "Point", "coordinates": [16.608333333333, 49.195277777778]}, "properties": {"description": "Brno", "name": "Brno"}}, {"type": "Feature", "geometry": {"type": "Point", "coordinates": [16.373064, 48.20833]}, "properties": {"description": "Wien", "name": "Wien"}}, {"type": "Feature", "geometry": {"type": "Point", "coordinates": [15.616666666667, 48.416666666667]}, "properties": {"description": "Krems an der Donau", "name": "Krems an der Donau"}}, {"type": "Feature", "geometry": {"type": "Point", "coordinates": [16.3089, 48.3792]}, "properties": {"description": "Burg Kreuzenstein", "name": "Burg Kreuzenstein"}}, {"type": "Feature", "geometry": {"type": "Point", "coordinates": [16.833333333333, 48.383333333333]}, "properties": {"description": "Angern an der March (kommunhuvudort)", "name": "Angern an der March (kommunhuvudort)"}}, {"type": "Feature", "geometry": {"type": "Point", "coordinates": [16.566666666667, 48.566666666667]}, "properties": {"description": "Mistelbach", "name": "Mistelbach"}}, {"type": "Feature", "geometry": {"type": "Point", "coordinates": [14.0, 48.0]}, "properties": {"description": "\u00d6sterrike", "name": "\u00d6sterrike"}}, {"type": "Feature", "geometry": {"type": "Point", "coordinates": [19.0, 47.0]}, "properties": {"description": "Ungern", "name": "Ungern"}}, {"type": "Feature", "geometry": {"type": "Point", "coordinates": [15.416666666667, 48.35]}, "properties": {"description": "Spitz (kommun)", "name": "Spitz (kommun)"}}, {"type": "Feature", "geometry": {"type": "Point", "coordinates": [16.485855863965, 48.857490198383]}, "properties": {"description": "Drnholec", "name": "Drnholec"}}, {"type": "Feature", "geometry": {"type": "Point", "coordinates": [15.166666666667, 47.25]}, "properties": {"description": "Steiermark", "name": "Steiermark"}}, {"type": "Feature", "geometry": {"type": "Point", "coordinates": [15.433333333333, 47.066666666667]}, "properties": {"description": "Graz", "name": "Graz"}}, {"type": "Feature", "geometry": {"type": "Point", "coordinates": [16.637789181722, 48.805586996193]}, "properties": {"description": "Mikulov", "name": "Mikulov"}}, {"type": "Feature", "geometry": {"type": "Point", "coordinates": [16.5783, 48.725]}, "properties": {"description": "Falkenstein Castle", "name": "Falkenstein Castle"}}, {"type": "Feature", "geometry": {"type": "Point", "coordinates": [15.952222222222, 48.756111111111]}, "properties": {"description": "Retz", "name": "Retz"}}, {"type": "Feature", "geometry": {"type": "Point", "coordinates": [18.040555555556, 48.894166666667]}, "properties": {"description": "Tren\u010d\u00edn", "name": "Tren\u010d\u00edn"}}], "crs": {"type": "name", "properties": {"name": "urn:ogc:def:crs:OGC:2:84"}}, "bbox": [10.0, 10.0, 50.1, 50.1]}