{"type": "FeatureCollection", "features": [{"type": "Feature", "geometry": {"type": "Point", "coordinates": [13.594444444444, 56.450833333333]}, "properties": {"description": "Markaryd", "name": "Markaryd"}}, {"type": "Feature", "geometry": {"type": "Point", "coordinates": [13.044722222222, 56.510833333333]}, "properties": {"description": "Laholm", "name": "Laholm"}}, {"type": "Feature", "geometry": {"type": "Point", "coordinates": [12.85, 56.666666666667]}, "properties": {"description": "Halmstad", "name": "Halmstad"}}, {"type": "Feature", "geometry": {"type": "Point", "coordinates": [14.15, 56.033333333333]}, "properties": {"description": "Kristianstad", "name": "Kristianstad"}}, {"type": "Feature", "geometry": {"type": "Point", "coordinates": [12.616666666667, 56.033333333333]}, "properties": {"description": "Helsing\u00f6r", "name": "Helsing\u00f6r"}}, {"type": "Feature", "geometry": {"type": "Point", "coordinates": [12.966666666667, 56.366666666667]}, "properties": {"description": "Hallands\u00e5sen", "name": "Hallands\u00e5sen"}}, {"type": "Feature", "geometry": {"type": "Point", "coordinates": [12.866666666667, 56.241666666667]}, "properties": {"description": "\u00c4ngelholm", "name": "\u00c4ngelholm"}}], "crs": {"type": "name", "properties": {"name": "urn:ogc:def:crs:OGC:2:84"}}, "bbox": [12.616666666667, 12.616666666667, 56.450833333333, 56.450833333333]}