{"type": "FeatureCollection", "features": [{"type": "Feature", "geometry": {"type": "Point", "coordinates": [14.474722222222, 48.974722222222]}, "properties": {"description": "\u010cesk\u00e9 Bud\u011bjovice", "name": "\u010cesk\u00e9 Bud\u011bjovice"}}, {"type": "Feature", "geometry": {"type": "Point", "coordinates": [16.598889, 49.194444]}, "properties": {"description": "\u0160pilberk", "name": "\u0160pilberk"}}, {"type": "Feature", "geometry": {"type": "Point", "coordinates": [12.383333333333, 51.333333333333]}, "properties": {"description": "Leipzig", "name": "Leipzig"}}, {"type": "Feature", "geometry": {"type": "Point", "coordinates": [16.080277777778, 51.658888888889]}, "properties": {"description": "G\u0142og\u00f3w", "name": "G\u0142og\u00f3w"}}, {"type": "Feature", "geometry": {"type": "Point", "coordinates": [13.733333333333, 51.033333333333]}, "properties": {"description": "Dresden", "name": "Dresden"}}, {"type": "Feature", "geometry": {"type": "Point", "coordinates": [14.0, 50.0]}, "properties": {"description": "B\u00f6hmen", "name": "B\u00f6hmen"}}, {"type": "Feature", "geometry": {"type": "Point", "coordinates": [13.4775, 51.163611111111]}, "properties": {"description": "Meissen", "name": "Meissen"}}], "crs": {"type": "name", "properties": {"name": "urn:ogc:def:crs:OGC:2:84"}}, "bbox": [12.383333333333, 12.383333333333, 51.658888888889, 51.658888888889]}