{"type": "FeatureCollection", "features": [{"type": "Feature", "geometry": {"type": "Point", "coordinates": [14.474722222222, 48.974722222222]}, "properties": {"description": "\u010cesk\u00e9 Bud\u011bjovice", "name": "\u010cesk\u00e9 Bud\u011bjovice"}}, {"type": "Feature", "geometry": {"type": "Point", "coordinates": [16.598889, 49.194444]}, "properties": {"description": "\u0160pilberk", "name": "\u0160pilberk"}}, {"type": "Feature", "geometry": {"type": "Point", "coordinates": [10.0, 53.55]}, "properties": {"description": "Hamburg", "name": "Hamburg"}}, {"type": "Feature", "geometry": {"type": "Point", "coordinates": [16.608333333333, 49.195277777778]}, "properties": {"description": "Brno", "name": "Brno"}}, {"type": "Feature", "geometry": {"type": "Point", "coordinates": [15.616666666667, 48.416666666667]}, "properties": {"description": "Krems an der Donau", "name": "Krems an der Donau"}}, {"type": "Feature", "geometry": {"type": "Point", "coordinates": [14.0, 50.0]}, "properties": {"description": "B\u00f6hmen", "name": "B\u00f6hmen"}}, {"type": "Feature", "geometry": {"type": "Point", "coordinates": [9.6644444444444, 54.304444444444]}, "properties": {"description": "Rendsburg", "name": "Rendsburg"}}, {"type": "Feature", "geometry": {"type": "Point", "coordinates": [-0.9, 52.233333333333]}, "properties": {"description": "Northampton", "name": "Northampton"}}, {"type": "Feature", "geometry": {"type": "Point", "coordinates": [-1.1333333333333, 52.633333333333]}, "properties": {"description": "Leicester", "name": "Leicester"}}, {"type": "Feature", "geometry": {"type": "Point", "coordinates": [19.0, 47.0]}, "properties": {"description": "Ungern", "name": "Ungern"}}, {"type": "Feature", "geometry": {"type": "Point", "coordinates": [-0.1275, 51.507222222222]}, "properties": {"description": "London", "name": "London"}}], "crs": {"type": "name", "properties": {"name": "urn:ogc:def:crs:OGC:2:84"}}, "bbox": [-1.1333333333333, -1.1333333333333, 51.507222222222, 51.507222222222]}