{"type": "FeatureCollection", "features": [{"type": "Feature", "geometry": {"type": "Point", "coordinates": [13.1194, 54.5931]}, "properties": {"description": "Dornbusch", "name": "Dornbusch"}}, {"type": "Feature", "geometry": {"type": "Point", "coordinates": [12.568888888889, 55.676111111111]}, "properties": {"description": "K\u00f6penhamn", "name": "K\u00f6penhamn"}}, {"type": "Feature", "geometry": {"type": "Point", "coordinates": [14.283333333333, 55.916666666667]}, "properties": {"description": "\u00c5hus", "name": "\u00c5hus"}}, {"type": "Feature", "geometry": {"type": "Point", "coordinates": [18.633333333333, 54.366666666667]}, "properties": {"description": "Gda\u0144sk", "name": "Gda\u0144sk"}}, {"type": "Feature", "geometry": {"type": "Point", "coordinates": [10.686388888889, 53.869722222222]}, "properties": {"description": "L\u00fcbeck", "name": "L\u00fcbeck"}}, {"type": "Feature", "geometry": {"type": "Point", "coordinates": [13.4, 54.416666666667]}, "properties": {"description": "R\u00fcgen", "name": "R\u00fcgen"}}, {"type": "Feature", "geometry": {"type": "Point", "coordinates": [13.083333333333, 54.3]}, "properties": {"description": "Stralsund", "name": "Stralsund"}}], "crs": {"type": "name", "properties": {"name": "urn:ogc:def:crs:OGC:2:84"}}, "bbox": [10.686388888889, 10.686388888889, 55.916666666667, 55.916666666667]}