{"type": "FeatureCollection", "features": [{"type": "Feature", "geometry": {"type": "Point", "coordinates": [4.5, 51.0]}, "properties": {"description": "Flandern", "name": "Flandern"}}, {"type": "Feature", "geometry": {"type": "Point", "coordinates": [9.2166666666667, 49.15]}, "properties": {"description": "Heilbronn", "name": "Heilbronn"}}, {"type": "Feature", "geometry": {"type": "Point", "coordinates": [10.0, 53.55]}, "properties": {"description": "Hamburg", "name": "Hamburg"}}, {"type": "Feature", "geometry": {"type": "Point", "coordinates": [16.373064, 48.20833]}, "properties": {"description": "Wien", "name": "Wien"}}, {"type": "Feature", "geometry": {"type": "Point", "coordinates": [8.0430555555556, 52.278888888889]}, "properties": {"description": "Osnabr\u00fcck", "name": "Osnabr\u00fcck"}}, {"type": "Feature", "geometry": {"type": "Point", "coordinates": [7.6333333333333, 51.966666666667]}, "properties": {"description": "M\u00fcnster", "name": "M\u00fcnster"}}, {"type": "Feature", "geometry": {"type": "Point", "coordinates": [3.6878, 51.1914]}, "properties": {"description": "Oosteeklo", "name": "Oosteeklo"}}], "crs": {"type": "name", "properties": {"name": "urn:ogc:def:crs:OGC:2:84"}}, "bbox": [3.6878, 3.6878, 53.55, 53.55]}