{"type": "FeatureCollection", "features": [{"type": "Feature", "geometry": {"type": "Point", "coordinates": [12.85, 56.666666666667]}, "properties": {"description": "Halmstad", "name": "Halmstad"}}, {"type": "Feature", "geometry": {"type": "Point", "coordinates": [18.068611111111, 59.329444444444]}, "properties": {"description": "Stockholm", "name": "Stockholm"}}, {"type": "Feature", "geometry": {"type": "Point", "coordinates": [11.966666666667, 57.706944444444]}, "properties": {"description": "G\u00f6teborg", "name": "G\u00f6teborg"}}, {"type": "Feature", "geometry": {"type": "Point", "coordinates": [12.25, 57.105555555556]}, "properties": {"description": "Varberg", "name": "Varberg"}}, {"type": "Feature", "geometry": {"type": "Point", "coordinates": [12.016666666667, 57.816666666667]}, "properties": {"description": "Surte", "name": "Surte"}}], "crs": {"type": "name", "properties": {"name": "urn:ogc:def:crs:OGC:2:84"}}, "bbox": [11.966666666667, 11.966666666667, 59.329444444444, 59.329444444444]}