{"type": "FeatureCollection", "features": [{"type": "Feature", "geometry": {"type": "Point", "coordinates": [17.03533, 51.10773]}, "properties": {"description": "Wroc\u0142aw", "name": "Wroc\u0142aw"}}, {"type": "Feature", "geometry": {"type": "Point", "coordinates": [10.0, 53.55]}, "properties": {"description": "Hamburg", "name": "Hamburg"}}, {"type": "Feature", "geometry": {"type": "Point", "coordinates": [10.414444444444, 53.2525]}, "properties": {"description": "L\u00fcneburg", "name": "L\u00fcneburg"}}, {"type": "Feature", "geometry": {"type": "Point", "coordinates": [16.373064, 48.20833]}, "properties": {"description": "Wien", "name": "Wien"}}, {"type": "Feature", "geometry": {"type": "Point", "coordinates": [15.616666666667, 48.416666666667]}, "properties": {"description": "Krems an der Donau", "name": "Krems an der Donau"}}, {"type": "Feature", "geometry": {"type": "Point", "coordinates": [16.210833333333, 48.385833333333]}, "properties": {"description": "Stockerau (kommunhuvudort)", "name": "Stockerau (kommunhuvudort)"}}, {"type": "Feature", "geometry": {"type": "Point", "coordinates": [14.0, 50.0]}, "properties": {"description": "B\u00f6hmen", "name": "B\u00f6hmen"}}, {"type": "Feature", "geometry": {"type": "Point", "coordinates": [12.2, 49.3]}, "properties": {"description": "Oberpfalz", "name": "Oberpfalz"}}, {"type": "Feature", "geometry": {"type": "Point", "coordinates": [29.647293, 45.16291]}, "properties": {"description": "Donau", "name": "Donau"}}, {"type": "Feature", "geometry": {"type": "Point", "coordinates": [8.4547222222222, 49.236944444444]}, "properties": {"description": "Philippsburg", "name": "Philippsburg"}}, {"type": "Feature", "geometry": {"type": "Point", "coordinates": [14.0, 48.2]}, "properties": {"description": "Ober\u00f6sterreich", "name": "Ober\u00f6sterreich"}}, {"type": "Feature", "geometry": {"type": "Point", "coordinates": [11.616666666667, 52.133333333333]}, "properties": {"description": "Magdeburg", "name": "Magdeburg"}}, {"type": "Feature", "geometry": {"type": "Point", "coordinates": [2.0, 47.0]}, "properties": {"description": "Frankrike", "name": "Frankrike"}}, {"type": "Feature", "geometry": {"type": "Point", "coordinates": [9.66667, 54.1667]}, "properties": {"description": "Holstein", "name": "Holstein"}}, {"type": "Feature", "geometry": {"type": "Point", "coordinates": [17.121482256516, 49.770928637031]}, "properties": {"description": "Uni\u010dov", "name": "Uni\u010dov"}}, {"type": "Feature", "geometry": {"type": "Point", "coordinates": [11.431111111111, 48.7775]}, "properties": {"description": "Bayern", "name": "Bayern"}}, {"type": "Feature", "geometry": {"type": "Point", "coordinates": [10.558888888889, 53.375833333333]}, "properties": {"description": "Lauenburg/Elbe", "name": "Lauenburg/Elbe"}}], "crs": {"type": "name", "properties": {"name": "urn:ogc:def:crs:OGC:2:84"}}, "bbox": [2.0, 2.0, 54.1667, 54.1667]}