{"type": "FeatureCollection", "features": [{"type": "Feature", "geometry": {"type": "Point", "coordinates": [8.6797222222222, 50.113611111111]}, "properties": {"description": "Frankfurt am Main", "name": "Frankfurt am Main"}}, {"type": "Feature", "geometry": {"type": "Point", "coordinates": [14.474722222222, 48.974722222222]}, "properties": {"description": "\u010cesk\u00e9 Bud\u011bjovice", "name": "\u010cesk\u00e9 Bud\u011bjovice"}}, {"type": "Feature", "geometry": {"type": "Point", "coordinates": [9.1630555555556, 49.230555555556]}, "properties": {"description": "Bad Wimpfen", "name": "Bad Wimpfen"}}, {"type": "Feature", "geometry": {"type": "Point", "coordinates": [10.18611111, 54.39138889]}, "properties": {"description": "Friedrichsort", "name": "Friedrichsort"}}, {"type": "Feature", "geometry": {"type": "Point", "coordinates": [17.0, 49.5]}, "properties": {"description": "M\u00e4hren", "name": "M\u00e4hren"}}, {"type": "Feature", "geometry": {"type": "Point", "coordinates": [10.0, 53.55]}, "properties": {"description": "Hamburg", "name": "Hamburg"}}, {"type": "Feature", "geometry": {"type": "Point", "coordinates": [14.421388888889, 50.088611111111]}, "properties": {"description": "Prag", "name": "Prag"}}, {"type": "Feature", "geometry": {"type": "Point", "coordinates": [9.7666666666667, 49.5]}, "properties": {"description": "Bad Mergentheim", "name": "Bad Mergentheim"}}, {"type": "Feature", "geometry": {"type": "Point", "coordinates": [14.0, 50.0]}, "properties": {"description": "B\u00f6hmen", "name": "B\u00f6hmen"}}, {"type": "Feature", "geometry": {"type": "Point", "coordinates": [11.263333333333, 53.138333333333]}, "properties": {"description": "D\u00f6mitz", "name": "D\u00f6mitz"}}, {"type": "Feature", "geometry": {"type": "Point", "coordinates": [12.2, 49.3]}, "properties": {"description": "Oberpfalz", "name": "Oberpfalz"}}, {"type": "Feature", "geometry": {"type": "Point", "coordinates": [8.4547222222222, 49.236944444444]}, "properties": {"description": "Philippsburg", "name": "Philippsburg"}}, {"type": "Feature", "geometry": {"type": "Point", "coordinates": [15.590555555556, 49.400277777778]}, "properties": {"description": "Jihlava", "name": "Jihlava"}}, {"type": "Feature", "geometry": {"type": "Point", "coordinates": [4.0930555555556, 51.980833333333]}, "properties": {"description": "Rhen", "name": "Rhen"}}, {"type": "Feature", "geometry": {"type": "Point", "coordinates": [15.921447438363, 50.356235289292]}, "properties": {"description": "Jarom\u011b\u0159", "name": "Jarom\u011b\u0159"}}, {"type": "Feature", "geometry": {"type": "Point", "coordinates": [10.178888888889, 49.377222222222]}, "properties": {"description": "Rothenburg ob der Tauber", "name": "Rothenburg ob der Tauber"}}, {"type": "Feature", "geometry": {"type": "Point", "coordinates": [2.0, 47.0]}, "properties": {"description": "Frankrike", "name": "Frankrike"}}, {"type": "Feature", "geometry": {"type": "Point", "coordinates": [15.831944444444, 50.209166666667]}, "properties": {"description": "Hradec Kr\u00e1lov\u00e9", "name": "Hradec Kr\u00e1lov\u00e9"}}, {"type": "Feature", "geometry": {"type": "Point", "coordinates": [10.4, 53.616666666667]}, "properties": {"description": "Trittau", "name": "Trittau"}}, {"type": "Feature", "geometry": {"type": "Point", "coordinates": [9.8, 53.633333333333]}, "properties": {"description": "Pinneberg", "name": "Pinneberg"}}, {"type": "Feature", "geometry": {"type": "Point", "coordinates": [7.5977777777778, 50.359722222222]}, "properties": {"description": "Koblenz", "name": "Koblenz"}}, {"type": "Feature", "geometry": {"type": "Point", "coordinates": [9.23889, 50.9139]}, "properties": {"description": "Ziegenhain", "name": "Ziegenhain"}}, {"type": "Feature", "geometry": {"type": "Point", "coordinates": [7.895, 49.966944444444]}, "properties": {"description": "Bingen am Rhein", "name": "Bingen am Rhein"}}], "crs": {"type": "name", "properties": {"name": "urn:ogc:def:crs:OGC:2:84"}}, "bbox": [2.0, 2.0, 54.39138889, 54.39138889]}