{"type": "FeatureCollection", "features": [{"type": "Feature", "geometry": {"type": "Point", "coordinates": [14.421388888889, 50.088611111111]}, "properties": {"description": "Prag", "name": "Prag"}}, {"type": "Feature", "geometry": {"type": "Point", "coordinates": [15.921447438363, 50.356235289292]}, "properties": {"description": "Jarom\u011b\u0159", "name": "Jarom\u011b\u0159"}}, {"type": "Feature", "geometry": {"type": "Point", "coordinates": [16.652777777778, 50.437777777778]}, "properties": {"description": "K\u0142odzko", "name": "K\u0142odzko"}}, {"type": "Feature", "geometry": {"type": "Point", "coordinates": [15.831944444444, 50.209166666667]}, "properties": {"description": "Hradec Kr\u00e1lov\u00e9", "name": "Hradec Kr\u00e1lov\u00e9"}}, {"type": "Feature", "geometry": {"type": "Point", "coordinates": [15.794722222222, 49.951111111111]}, "properties": {"description": "Chrudim", "name": "Chrudim"}}, {"type": "Feature", "geometry": {"type": "Point", "coordinates": [14.131899491403, 50.53355947692]}, "properties": {"description": "Litom\u011b\u0159ice", "name": "Litom\u011b\u0159ice"}}, {"type": "Feature", "geometry": {"type": "Point", "coordinates": [15.566666666667, 51.266666666667]}, "properties": {"description": "Boles\u0142awiec", "name": "Boles\u0142awiec"}}], "crs": {"type": "name", "properties": {"name": "urn:ogc:def:crs:OGC:2:84"}}, "bbox": [14.131899491403, 14.131899491403, 51.266666666667, 51.266666666667]}