{"type": "FeatureCollection", "features": [{"type": "Feature", "geometry": {"type": "Point", "coordinates": [8.0, 61.0]}, "properties": {"description": "Norge", "name": "Norge"}}, {"type": "Feature", "geometry": {"type": "Point", "coordinates": [12.325, 58.380555555556]}, "properties": {"description": "V\u00e4nersborg", "name": "V\u00e4nersborg"}}, {"type": "Feature", "geometry": {"type": "Point", "coordinates": [12.448, 59.274]}, "properties": {"description": "Dalsland", "name": "Dalsland"}}, {"type": "Feature", "geometry": {"type": "Point", "coordinates": [11.93833333, 58.90583333]}, "properties": {"description": "Dals-Eds socken", "name": "Dals-Eds socken"}}, {"type": "Feature", "geometry": {"type": "Point", "coordinates": [12.79722222, 59.33305556]}, "properties": {"description": "Gillberga socken, V\u00e4rmland", "name": "Gillberga socken, V\u00e4rmland"}}, {"type": "Feature", "geometry": {"type": "Point", "coordinates": [16.333333333333, 59.75]}, "properties": {"description": "V\u00e4stmanland", "name": "V\u00e4stmanland"}}, {"type": "Feature", "geometry": {"type": "Point", "coordinates": [13.25, 59.75]}, "properties": {"description": "V\u00e4rmland", "name": "V\u00e4rmland"}}, {"type": "Feature", "geometry": {"type": "Point", "coordinates": [12.718611111111, 59.040277777778]}, "properties": {"description": "\u00c5m\u00e5l", "name": "\u00c5m\u00e5l"}}, {"type": "Feature", "geometry": {"type": "Point", "coordinates": [15.271, 59.243]}, "properties": {"description": "N\u00e4rke", "name": "N\u00e4rke"}}], "crs": {"type": "name", "properties": {"name": "urn:ogc:def:crs:OGC:2:84"}}, "bbox": [8.0, 8.0, 61.0, 61.0]}