{"type": "FeatureCollection", "features": [{"type": "Feature", "geometry": {"type": "Point", "coordinates": [15.590555555556, 49.400277777778]}, "properties": {"description": "Jihlava: 1645-04-14<br><a href='https://oldnews.peterkrantz.se/post/145'>Fr\u00e5n Dantzigh den I4. April. st. no</a>", "name": "Jihlava", "time": "1645-04-14", "url": "https://oldnews.peterkrantz.se/post/145"}}, {"type": "Feature", "geometry": {"type": "Point", "coordinates": [16.608333333333, 49.195277777778]}, "properties": {"description": "Brno: 1645-08-05<br><a href='https://oldnews.peterkrantz.se/post/564'>Fr\u00e5n Hamborg den 5. Augusti.</a>", "name": "Brno", "time": "1645-08-05", "url": "https://oldnews.peterkrantz.se/post/564"}}, {"type": "Feature", "geometry": {"type": "Point", "coordinates": [11.465, 53.8925]}, "properties": {"description": "Wismar: 1645-01-18<br><a href='https://oldnews.peterkrantz.se/post/77'>Dito (Ystad) den I8. Jan.</a>", "name": "Wismar", "time": "1645-01-18", "url": "https://oldnews.peterkrantz.se/post/77"}}, {"type": "Feature", "geometry": {"type": "Point", "coordinates": [14.421388888889, 50.088611111111]}, "properties": {"description": "Prag: 1645-10-18<br><a href='https://oldnews.peterkrantz.se/post/772'>Fr\u00e5n Hamborg den I8. Octob.</a>", "name": "Prag", "time": "1645-10-18", "url": "https://oldnews.peterkrantz.se/post/772"}}, {"type": "Feature", "geometry": {"type": "Point", "coordinates": [10.0, 53.55]}, "properties": {"description": "Hamburg: 1645-08-23<br><a href='https://oldnews.peterkrantz.se/post/601'>Fr\u00e5n Hamborg den 23. Auguszt.</a>", "name": "Hamburg", "time": "1645-08-23", "url": "https://oldnews.peterkrantz.se/post/601"}}, {"type": "Feature", "geometry": {"type": "Point", "coordinates": [12.85, 56.666666666667]}, "properties": {"description": "Halmstad: 1645-03-26<br><a href='https://oldnews.peterkrantz.se/post/217'>Ifr\u00e5n ???Marckryd den 26. Martij.</a>", "name": "Halmstad", "time": "1645-03-26", "url": "https://oldnews.peterkrantz.se/post/217"}}, {"type": "Feature", "geometry": {"type": "Point", "coordinates": [4.313035, 52.079631]}, "properties": {"description": "Generalstaterna: 1645-08-13<br><a href='https://oldnews.peterkrantz.se/post/552'>Fredz Articlar emellan Hans Kongl. Mayestet i Danmarck /   Och  The Herrar General Staterne i the f\u00f6rendade Nederlanden / Slutne den I3. Augusti \u00c5hr I645.</a>", "name": "Generalstaterna", "time": "1645-08-13", "url": "https://oldnews.peterkrantz.se/post/552"}}, {"type": "Feature", "geometry": {"type": "Point", "coordinates": [37.617777777778, 55.755833333333]}, "properties": {"description": "Moskva: 1645-05-13<br><a href='https://oldnews.peterkrantz.se/post/230'>Vthur Muszkow den I3. Maij.</a>", "name": "Moskva", "time": "1645-05-13", "url": "https://oldnews.peterkrantz.se/post/230"}}, {"type": "Feature", "geometry": {"type": "Point", "coordinates": [11.45, 47.75]}, "properties": {"description": "Bad Heilbrunn: 1645-04-19<br><a href='https://oldnews.peterkrantz.se/post/175'>Fr\u00e5n Hamborg den I9. Apr.</a>", "name": "Bad Heilbrunn", "time": "1645-04-19", "url": "https://oldnews.peterkrantz.se/post/175"}}, {"type": "Feature", "geometry": {"type": "Point", "coordinates": [11.966666666667, 57.706944444444]}, "properties": {"description": "G\u00f6teborg: 1645-01-11<br><a href='https://oldnews.peterkrantz.se/post/41'>Ifr\u00e5n G\u00f6teborg den II. Jan.</a>", "name": "G\u00f6teborg", "time": "1645-01-11", "url": "https://oldnews.peterkrantz.se/post/41"}}, {"type": "Feature", "geometry": {"type": "Point", "coordinates": [8.6797222222222, 50.113611111111]}, "properties": {"description": "Frankfurt am Main: 1645-11-01<br><a href='https://oldnews.peterkrantz.se/post/762'>Fr\u00e5n N\u00f6rnberg den I. Nov.</a>", "name": "Frankfurt am Main", "time": "1645-11-01", "url": "https://oldnews.peterkrantz.se/post/762"}}, {"type": "Feature", "geometry": {"type": "Point", "coordinates": [18.068611111111, 59.329444444444]}, "properties": {"description": "Stockholm: 1645-01-11<br><a href='https://oldnews.peterkrantz.se/post/41'>Ifr\u00e5n G\u00f6teborg den II. Jan.</a>", "name": "Stockholm", "time": "1645-01-11", "url": "https://oldnews.peterkrantz.se/post/41"}}, {"type": "Feature", "geometry": {"type": "Point", "coordinates": [13.044722222222, 56.510833333333]}, "properties": {"description": "Laholm: 1645-05-15<br><a href='https://oldnews.peterkrantz.se/post/376'>Fr\u00e5n Markarydh den I5. Maij.</a>", "name": "Laholm", "time": "1645-05-15", "url": "https://oldnews.peterkrantz.se/post/376"}}, {"type": "Feature", "geometry": {"type": "Point", "coordinates": [18.55, 57.5]}, "properties": {"description": "Gotland: 1645-10-24<br><a href='https://oldnews.peterkrantz.se/post/714'>Fr\u00e5n Gottland den 24. Octob.</a>", "name": "Gotland", "time": "1645-10-24", "url": "https://oldnews.peterkrantz.se/post/714"}}, {"type": "Feature", "geometry": {"type": "Point", "coordinates": [11.999444444444, 57.861944444444]}, "properties": {"description": "Bohus f\u00e4stning: 1645-06-04<br><a href='https://oldnews.peterkrantz.se/post/408'>Ett annat fr\u00e5n G\u00f6teborg den 4. Junij.</a>", "name": "Bohus f\u00e4stning", "time": "1645-06-04", "url": "https://oldnews.peterkrantz.se/post/408"}}, {"type": "Feature", "geometry": {"type": "Point", "coordinates": [17.112777777778, 48.144722222222]}, "properties": {"description": "Bratislava: 1645-04-09<br><a href='https://oldnews.peterkrantz.se/post/288'>Fr\u00e5n Hamborg den 9. April.</a>", "name": "Bratislava", "time": "1645-04-09", "url": "https://oldnews.peterkrantz.se/post/288"}}, {"type": "Feature", "geometry": {"type": "Point", "coordinates": [13.29508891337, 49.395625338265]}, "properties": {"description": "Klatovy: 1645-12-13<br><a href='https://oldnews.peterkrantz.se/post/632'>Fr\u00e5n Hamborg den I3. Decemb.</a>", "name": "Klatovy", "time": "1645-12-13", "url": "https://oldnews.peterkrantz.se/post/632"}}, {"type": "Feature", "geometry": {"type": "Point", "coordinates": [17.260277777778, 49.596111111111]}, "properties": {"description": "Olomouc: 1645-04-16<br><a href='https://oldnews.peterkrantz.se/post/280'>Fr\u00e5n Sietin den 6. April. st. vet.</a>", "name": "Olomouc", "time": "1645-04-16", "url": "https://oldnews.peterkrantz.se/post/280"}}, {"type": "Feature", "geometry": {"type": "Point", "coordinates": [17.0, 49.5]}, "properties": {"description": "M\u00e4hren: 1645-02-26<br><a href='https://oldnews.peterkrantz.se/post/229'>Den 26. Februarij stylo vet.</a>", "name": "M\u00e4hren", "time": "1645-02-26", "url": "https://oldnews.peterkrantz.se/post/229"}}, {"type": "Feature", "geometry": {"type": "Point", "coordinates": [16.033333333333, 56.25]}, "properties": {"description": "Kristianopel: 1645-05-21<br><a href='https://oldnews.peterkrantz.se/post/366'>Fr\u00e5n Calmar den 2I. Maij.</a>", "name": "Kristianopel", "time": "1645-05-21", "url": "https://oldnews.peterkrantz.se/post/366"}}, {"type": "Feature", "geometry": {"type": "Point", "coordinates": [21.25, 48.716666666667]}, "properties": {"description": "Ko\u0161ice: 1644-12-19<br><a href='https://oldnews.peterkrantz.se/post/21'>Ifr\u00e5n Crakaw den 19. Decemb.</a>", "name": "Ko\u0161ice", "time": "1644-12-19", "url": "https://oldnews.peterkrantz.se/post/21"}}, {"type": "Feature", "geometry": {"type": "Point", "coordinates": [16.608333333333, 49.195277777778]}, "properties": {"description": "Brno: 1645-05-01<br><a href='https://oldnews.peterkrantz.se/post/322'>Fr\u00e5n Hamborg den I. Maij.</a>", "name": "Brno", "time": "1645-05-01", "url": "https://oldnews.peterkrantz.se/post/322"}}, {"type": "Feature", "geometry": {"type": "Point", "coordinates": [4.3525, 50.846666666667]}, "properties": {"description": "Bryssel: 1645-10-04<br><a href='https://oldnews.peterkrantz.se/post/696'>Fr\u00e5n Hamborg den 4.Octob.</a>", "name": "Bryssel", "time": "1645-10-04", "url": "https://oldnews.peterkrantz.se/post/696"}}, {"type": "Feature", "geometry": {"type": "Point", "coordinates": [13.95, 62.25]}, "properties": {"description": "H\u00e4rjedalen: 1645-12-03<br><a href='https://oldnews.peterkrantz.se/post/784'>Fr\u00e5n Marckaryd den 3. Decemb.</a>", "name": "H\u00e4rjedalen", "time": "1645-12-03", "url": "https://oldnews.peterkrantz.se/post/784"}}, {"type": "Feature", "geometry": {"type": "Point", "coordinates": [16.637789181722, 48.805586996193]}, "properties": {"description": "Mikulov: 1645-05-01<br><a href='https://oldnews.peterkrantz.se/post/322'>Fr\u00e5n Hamborg den I. Maij.</a>", "name": "Mikulov", "time": "1645-05-01", "url": "https://oldnews.peterkrantz.se/post/322"}}, {"type": "Feature", "geometry": {"type": "Point", "coordinates": [13.002222222222, 50.58]}, "properties": {"description": "Annaberg-Buchholz: 1645-01-04<br><a href='https://oldnews.peterkrantz.se/post/67'>Ifr\u00e5n Leipsich den 4. Ianuarij.</a>", "name": "Annaberg-Buchholz", "time": "1645-01-04", "url": "https://oldnews.peterkrantz.se/post/67"}}, {"type": "Feature", "geometry": {"type": "Point", "coordinates": [12.2, 49.3]}, "properties": {"description": "Oberpfalz: 1645-10-18<br><a href='https://oldnews.peterkrantz.se/post/772'>Fr\u00e5n Hamborg den I8. Octob.</a>", "name": "Oberpfalz", "time": "1645-10-18", "url": "https://oldnews.peterkrantz.se/post/772"}}, {"type": "Feature", "geometry": {"type": "Point", "coordinates": [10.521111111111, 52.269166666667]}, "properties": {"description": "Braunschweig: 1645-11-19<br><a href='https://oldnews.peterkrantz.se/post/794'>Fr\u00e5n Hamborg den 29. Novemb.</a>", "name": "Braunschweig", "time": "1645-11-19", "url": "https://oldnews.peterkrantz.se/post/794"}}, {"type": "Feature", "geometry": {"type": "Point", "coordinates": [10.0, 53.55]}, "properties": {"description": "Hamburg: 1645-02-19<br><a href='https://oldnews.peterkrantz.se/post/174'>Fr\u00e5 Hamborg den I9. Febr.</a>", "name": "Hamburg", "time": "1645-02-19", "url": "https://oldnews.peterkrantz.se/post/174"}}, {"type": "Feature", "geometry": {"type": "Point", "coordinates": [8.8088888888889, 53.076944444444]}, "properties": {"description": "Bremen: 1645-01-10<br><a href='https://oldnews.peterkrantz.se/post/63'>Ifr\u00e5n Hamborg den I0. Januarij.</a>", "name": "Bremen", "time": "1645-01-10", "url": "https://oldnews.peterkrantz.se/post/63"}}, {"type": "Feature", "geometry": {"type": "Point", "coordinates": [13.733333333333, 51.033333333333]}, "properties": {"description": "Dresden: 1645-08-23<br><a href='https://oldnews.peterkrantz.se/post/268'>Fr\u00e5n Leipzig den 23. Aug.</a>", "name": "Dresden", "time": "1645-08-23", "url": "https://oldnews.peterkrantz.se/post/268"}}, {"type": "Feature", "geometry": {"type": "Point", "coordinates": [12.383333333333, 51.333333333333]}, "properties": {"description": "Leipzig: 1645-03-30<br><a href='https://oldnews.peterkrantz.se/post/286'>Fr\u00e5n Leipzig aff den 30. Martij.</a>", "name": "Leipzig", "time": "1645-03-30", "url": "https://oldnews.peterkrantz.se/post/286"}}, {"type": "Feature", "geometry": {"type": "Point", "coordinates": [5.55, 52.316666666667]}, "properties": {"description": "Nederl\u00e4nderna: 1645-12-13<br><a href='https://oldnews.peterkrantz.se/post/632'>Fr\u00e5n Hamborg den I3. Decemb.</a>", "name": "Nederl\u00e4nderna", "time": "1645-12-13", "url": "https://oldnews.peterkrantz.se/post/632"}}, {"type": "Feature", "geometry": {"type": "Point", "coordinates": [12.25, 57.105555555556]}, "properties": {"description": "Varberg: 1645-06-03<br><a href='https://oldnews.peterkrantz.se/post/395'>Fr\u00e5n Helsingborg den 3. Junij.</a>", "name": "Varberg", "time": "1645-06-03", "url": "https://oldnews.peterkrantz.se/post/395"}}, {"type": "Feature", "geometry": {"type": "Point", "coordinates": [14.0, 50.0]}, "properties": {"description": "B\u00f6hmen: 1645-04-19<br><a href='https://oldnews.peterkrantz.se/post/175'>Fr\u00e5n Hamborg den I9. Apr.</a>", "name": "B\u00f6hmen", "time": "1645-04-19", "url": "https://oldnews.peterkrantz.se/post/175"}}, {"type": "Feature", "geometry": {"type": "Point", "coordinates": [8.0, 61.0]}, "properties": {"description": "Norge: 1645-06-02<br><a href='https://oldnews.peterkrantz.se/post/389'>Vthur MorasSkantz den 2. Junij.</a>", "name": "Norge", "time": "1645-06-02", "url": "https://oldnews.peterkrantz.se/post/389"}}, {"type": "Feature", "geometry": {"type": "Point", "coordinates": [18.068611111111, 59.329444444444]}, "properties": {"description": "Stockholm: 1645-10-25<br><a href='https://oldnews.peterkrantz.se/post/712'>Fr\u00e5n K\u00f6penhambn den 25. Oct.</a>", "name": "Stockholm", "time": "1645-10-25", "url": "https://oldnews.peterkrantz.se/post/712"}}, {"type": "Feature", "geometry": {"type": "Point", "coordinates": [9.4219444444444, 53.791666666667]}, "properties": {"description": "Gl\u00fcckstadt: 1645-04-08<br><a href='https://oldnews.peterkrantz.se/post/346'>Datum i Hufwudhquarteren Mistelbach den 8. Apr. Anno I645. Linnar Torstenson.</a>", "name": "Gl\u00fcckstadt", "time": "1645-04-08", "url": "https://oldnews.peterkrantz.se/post/346"}}, {"type": "Feature", "geometry": {"type": "Point", "coordinates": [9.1333333333333, 53.483333333333]}, "properties": {"description": "Bremerv\u00f6rde: 1645-04-19<br><a href='https://oldnews.peterkrantz.se/post/310'>Fr\u00e5n Hamborg den I9. Apr.</a>", "name": "Bremerv\u00f6rde", "time": "1645-04-19", "url": "https://oldnews.peterkrantz.se/post/310"}}, {"type": "Feature", "geometry": {"type": "Point", "coordinates": [14.421388888889, 50.088611111111]}, "properties": {"description": "Prag: 1645-02-09<br><a href='https://oldnews.peterkrantz.se/post/119'>Fr\u00e5n Wiszmar den 9 Febr. I645.</a>", "name": "Prag", "time": "1645-02-09", "url": "https://oldnews.peterkrantz.se/post/119"}}, {"type": "Feature", "geometry": {"type": "Point", "coordinates": [11.616666666667, 52.133333333333]}, "properties": {"description": "Magdeburg: 1645-12-06<br><a href='https://oldnews.peterkrantz.se/post/803'>Fr\u00e5n Leipzig den 6. Decemb.</a>", "name": "Magdeburg", "time": "1645-12-06", "url": "https://oldnews.peterkrantz.se/post/803"}}, {"type": "Feature", "geometry": {"type": "Point", "coordinates": [11.75, 55.5]}, "properties": {"description": "Sj\u00e4lland: 1645-07-27<br><a href='https://oldnews.peterkrantz.se/post/531'>Fr\u00e5n Helsingborg den 27. Julij.</a>", "name": "Sj\u00e4lland", "time": "1645-07-27", "url": "https://oldnews.peterkrantz.se/post/531"}}, {"type": "Feature", "geometry": {"type": "Point", "coordinates": [14.15, 56.033333333333]}, "properties": {"description": "Kristianstad: 1645-05-22<br><a href='https://oldnews.peterkrantz.se/post/374'>Vthur Hans Excell. H. Gustaff Horns HufwudQuarter Fielckingen den 22. Maij.</a>", "name": "Kristianstad", "time": "1645-05-22", "url": "https://oldnews.peterkrantz.se/post/374"}}, {"type": "Feature", "geometry": {"type": "Point", "coordinates": [10.355833, 55.350278]}, "properties": {"description": "Fyn: 1645-02-25<br><a href='https://oldnews.peterkrantz.se/post/170'>Ifr\u00e5n Helsingborg den 25 Febr.</a>", "name": "Fyn", "time": "1645-02-25", "url": "https://oldnews.peterkrantz.se/post/170"}}, {"type": "Feature", "geometry": {"type": "Point", "coordinates": [16.373064, 48.20833]}, "properties": {"description": "Wien: 1645-05-01<br><a href='https://oldnews.peterkrantz.se/post/322'>Fr\u00e5n Hamborg den I. Maij.</a>", "name": "Wien", "time": "1645-05-01", "url": "https://oldnews.peterkrantz.se/post/322"}}, {"type": "Feature", "geometry": {"type": "Point", "coordinates": [19.483333333333, 40.45]}, "properties": {"description": "Vlora: 1645-04-12<br><a href='https://oldnews.peterkrantz.se/post/298'>Fr\u00e5n Hamborg den I2. April.</a>", "name": "Vlora", "time": "1645-04-12", "url": "https://oldnews.peterkrantz.se/post/298"}}, {"type": "Feature", "geometry": {"type": "Point", "coordinates": [4.9, 52.383333333333]}, "properties": {"description": "Amsterdam: 1645-08-26<br><a href='https://oldnews.peterkrantz.se/post/603'>Fr\u00e5n Amsterdam den 26 August.</a>", "name": "Amsterdam", "time": "1645-08-26", "url": "https://oldnews.peterkrantz.se/post/603"}}, {"type": "Feature", "geometry": {"type": "Point", "coordinates": [13.820833333333, 55.430555555556]}, "properties": {"description": "Ystad: 1645-01-04<br><a href='https://oldnews.peterkrantz.se/post/33'>Extract Skrifwelfe vthur  Feldtmarskalkens Herr Gustaff Horns  HufwudQwarter Vstede den 4. Januarij (1645)</a>", "name": "Ystad", "time": "1645-01-04", "url": "https://oldnews.peterkrantz.se/post/33"}}, {"type": "Feature", "geometry": {"type": "Point", "coordinates": [16.366666666667, 56.666666666667]}, "properties": {"description": "Kalmar: 1645-07-02<br><a href='https://oldnews.peterkrantz.se/post/465'>Fr\u00e5n Calmar den 2. Julij.</a>", "name": "Kalmar", "time": "1645-07-02", "url": "https://oldnews.peterkrantz.se/post/465"}}, {"type": "Feature", "geometry": {"type": "Point", "coordinates": [10.949722222222, 52.133055555556]}, "properties": {"description": "Sch\u00f6ningen: 1645-12-06<br><a href='https://oldnews.peterkrantz.se/post/803'>Fr\u00e5n Leipzig den 6. Decemb.</a>", "name": "Sch\u00f6ningen", "time": "1645-12-06", "url": "https://oldnews.peterkrantz.se/post/803"}}, {"type": "Feature", "geometry": {"type": "Point", "coordinates": [14.730787763268, 49.653005756667]}, "properties": {"description": "Jankov: 1645-02-26<br><a href='https://oldnews.peterkrantz.se/post/229'>Den 26. Februarij stylo vet.</a>", "name": "Jankov", "time": "1645-02-26", "url": "https://oldnews.peterkrantz.se/post/229"}}, {"type": "Feature", "geometry": {"type": "Point", "coordinates": [12.616666666667, 56.033333333333]}, "properties": {"description": "Helsing\u00f6r: 1645-08-25<br><a href='https://oldnews.peterkrantz.se/post/579'>Fr\u00e5n Helsingborg den 25. Dito.</a>", "name": "Helsing\u00f6r", "time": "1645-08-25", "url": "https://oldnews.peterkrantz.se/post/579"}}, {"type": "Feature", "geometry": {"type": "Point", "coordinates": [2.250556, 51.019444]}, "properties": {"description": "Mardyck: 1645-12-06<br><a href='https://oldnews.peterkrantz.se/post/224'>Fr\u00e5n Hamborg den 6. Decemb.</a>", "name": "Mardyck", "time": "1645-12-06", "url": "https://oldnews.peterkrantz.se/post/224"}}, {"type": "Feature", "geometry": {"type": "Point", "coordinates": [16.608333333333, 49.195277777778]}, "properties": {"description": "Brno: 1645-08-17<br><a href='https://oldnews.peterkrantz.se/post/575'>Fr\u00e5n Stralsund den I7. August.</a>", "name": "Brno", "time": "1645-08-17", "url": "https://oldnews.peterkrantz.se/post/575"}}, {"type": "Feature", "geometry": {"type": "Point", "coordinates": [12.2, 49.3]}, "properties": {"description": "Oberpfalz: 1645-11-29<br><a href='https://oldnews.peterkrantz.se/post/799'>Fr\u00e5n Leipzig den 29. Novemb.</a>", "name": "Oberpfalz", "time": "1645-11-29", "url": "https://oldnews.peterkrantz.se/post/799"}}, {"type": "Feature", "geometry": {"type": "Point", "coordinates": [8.0, 61.0]}, "properties": {"description": "Norge: 1645-07-22<br><a href='https://oldnews.peterkrantz.se/post/520'>Vtur Moras Skantz i Wermeland den 22. Julij.</a>", "name": "Norge", "time": "1645-07-22", "url": "https://oldnews.peterkrantz.se/post/520"}}, {"type": "Feature", "geometry": {"type": "Point", "coordinates": [15.079858729413, 50.921451823669]}, "properties": {"description": "Fr\u00fddlant v \u010cech\u00e1ch: 1645-12-06<br><a href='https://oldnews.peterkrantz.se/post/803'>Fr\u00e5n Leipzig den 6. Decemb.</a>", "name": "Fr\u00fddlant v \u010cech\u00e1ch", "time": "1645-12-06", "url": "https://oldnews.peterkrantz.se/post/803"}}, {"type": "Feature", "geometry": {"type": "Point", "coordinates": [13.902396874574, 49.261497897079]}, "properties": {"description": "Strakonice (ort i Tjeckien): 1645-04-19<br><a href='https://oldnews.peterkrantz.se/post/272'>Copia aff  Skrifwelse  den 27. Febr. Anno I645.</a>", "name": "Strakonice (ort i Tjeckien)", "time": "1645-04-19", "url": "https://oldnews.peterkrantz.se/post/272"}}, {"type": "Feature", "geometry": {"type": "Point", "coordinates": [23.583333333333, 46.766666666667]}, "properties": {"description": "Transsylvanien: 1644-12-05<br><a href='https://oldnews.peterkrantz.se/post/73'>Ifr\u00e5n Wien den 5. Dito</a>", "name": "Transsylvanien", "time": "1644-12-05", "url": "https://oldnews.peterkrantz.se/post/73"}}, {"type": "Feature", "geometry": {"type": "Point", "coordinates": [16.366666666667, 56.666666666667]}, "properties": {"description": "Kalmar: 1645-06-25<br><a href='https://oldnews.peterkrantz.se/post/444'>Fr\u00e5n Calmar den 25. Junij.</a>", "name": "Kalmar", "time": "1645-06-25", "url": "https://oldnews.peterkrantz.se/post/444"}}, {"type": "Feature", "geometry": {"type": "Point", "coordinates": [16.0, 56.3]}, "properties": {"description": "Br\u00f6msebro: 1645-09-16<br><a href='https://oldnews.peterkrantz.se/post/629'>Fr\u00e5n Amsterdam den I6 Sept. St. no.</a>", "name": "Br\u00f6msebro", "time": "1645-09-16", "url": "https://oldnews.peterkrantz.se/post/629"}}, {"type": "Feature", "geometry": {"type": "Point", "coordinates": [37.617777777778, 55.750277777778]}, "properties": {"description": "\u00c4rke\u00e4ngelskatedralen: 1645-07-17<br><a href='https://oldnews.peterkrantz.se/post/591'>Vthur Staden Muskow den I7. Julij St. pet.</a>", "name": "\u00c4rke\u00e4ngelskatedralen", "time": "1645-07-17", "url": "https://oldnews.peterkrantz.se/post/591"}}, {"type": "Feature", "geometry": {"type": "Point", "coordinates": [8.8088888888889, 53.076944444444]}, "properties": {"description": "Bremen: 1645-02-25<br><a href='https://oldnews.peterkrantz.se/post/170'>Ifr\u00e5n Helsingborg den 25 Febr.</a>", "name": "Bremen", "time": "1645-02-25", "url": "https://oldnews.peterkrantz.se/post/170"}}, {"type": "Feature", "geometry": {"type": "Point", "coordinates": [16.366666666667, 56.666666666667]}, "properties": {"description": "Kalmar: 1645-07-16<br><a href='https://oldnews.peterkrantz.se/post/261'>Fr\u00e5n Calmar den I6. Julij.</a>", "name": "Kalmar", "time": "1645-07-16", "url": "https://oldnews.peterkrantz.se/post/261"}}, {"type": "Feature", "geometry": {"type": "Point", "coordinates": [16.0, 56.3]}, "properties": {"description": "Br\u00f6msebro: 1645-08-13<br><a href='https://oldnews.peterkrantz.se/post/554'>Fr\u00e5n Calmar den I3 Aug.</a>", "name": "Br\u00f6msebro", "time": "1645-08-13", "url": "https://oldnews.peterkrantz.se/post/554"}}, {"type": "Feature", "geometry": {"type": "Point", "coordinates": [16.566666666667, 48.566666666667]}, "properties": {"description": "Mistelbach: 1645-05-01<br><a href='https://oldnews.peterkrantz.se/post/322'>Fr\u00e5n Hamborg den I. Maij.</a>", "name": "Mistelbach", "time": "1645-05-01", "url": "https://oldnews.peterkrantz.se/post/322"}}, {"type": "Feature", "geometry": {"type": "Point", "coordinates": [10.18611111, 54.39138889]}, "properties": {"description": "Friedrichsort: 1645-11-01<br><a href='https://oldnews.peterkrantz.se/post/734'>Fr\u00e5n Hamborg den I Novemb.</a>", "name": "Friedrichsort", "time": "1645-11-01", "url": "https://oldnews.peterkrantz.se/post/734"}}, {"type": "Feature", "geometry": {"type": "Point", "coordinates": [14.131899491403, 50.53355947692]}, "properties": {"description": "Litom\u011b\u0159ice: 1645-11-11<br><a href='https://oldnews.peterkrantz.se/post/754'>Fr\u00e5n Prag den II. Novemb. st. no.</a>", "name": "Litom\u011b\u0159ice", "time": "1645-11-11", "url": "https://oldnews.peterkrantz.se/post/754"}}, {"type": "Feature", "geometry": {"type": "Point", "coordinates": [12.7, 56.05]}, "properties": {"description": "Helsingborg: 1645-05-17<br><a href='https://oldnews.peterkrantz.se/post/360'>Fr\u00e5n Helsingborg den I7. Maij.</a>", "name": "Helsingborg", "time": "1645-05-17", "url": "https://oldnews.peterkrantz.se/post/360"}}, {"type": "Feature", "geometry": {"type": "Point", "coordinates": [11.999444444444, 57.861944444444]}, "properties": {"description": "Bohus f\u00e4stning: 1645-06-11<br><a href='https://oldnews.peterkrantz.se/post/416'>Fr\u00e5n G\u00f6teborg den II. Junij.</a>", "name": "Bohus f\u00e4stning", "time": "1645-06-11", "url": "https://oldnews.peterkrantz.se/post/416"}}, {"type": "Feature", "geometry": {"type": "Point", "coordinates": [15.590555555556, 49.400277777778]}, "properties": {"description": "Jihlava: 1645-10-18<br><a href='https://oldnews.peterkrantz.se/post/772'>Fr\u00e5n Hamborg den I8. Octob.</a>", "name": "Jihlava", "time": "1645-10-18", "url": "https://oldnews.peterkrantz.se/post/772"}}, {"type": "Feature", "geometry": {"type": "Point", "coordinates": [3.22, 51.209444444444]}, "properties": {"description": "Brygge: 1645-07-22<br><a href='https://oldnews.peterkrantz.se/post/543'>Fr\u00e5n Amsterdam den 22. Julij.</a>", "name": "Brygge", "time": "1645-07-22", "url": "https://oldnews.peterkrantz.se/post/543"}}, {"type": "Feature", "geometry": {"type": "Point", "coordinates": [17.703908920138, 50.089666916291]}, "properties": {"description": "Krnov: 1645-11-08<br><a href='https://oldnews.peterkrantz.se/post/759'>Fr\u00e5n Leipzig den 8. Novemb.</a>", "name": "Krnov", "time": "1645-11-08", "url": "https://oldnews.peterkrantz.se/post/759"}}, {"type": "Feature", "geometry": {"type": "Point", "coordinates": [13.433333333333, 58.383333333333]}, "properties": {"description": "Skara: 1645-02-06<br><a href='https://oldnews.peterkrantz.se/post/107'>Extract Skrifwelse ifr\u00e5 Skara den 6 Febr. I645.</a>", "name": "Skara", "time": "1645-02-06", "url": "https://oldnews.peterkrantz.se/post/107"}}, {"type": "Feature", "geometry": {"type": "Point", "coordinates": [17.65, 59.85]}, "properties": {"description": "Uppsala: 1645-08-17<br><a href='https://oldnews.peterkrantz.se/post/575'>Fr\u00e5n Stralsund den I7. August.</a>", "name": "Uppsala", "time": "1645-08-17", "url": "https://oldnews.peterkrantz.se/post/575"}}, {"type": "Feature", "geometry": {"type": "Point", "coordinates": [12.325, 58.380555555556]}, "properties": {"description": "V\u00e4nersborg: 1645-02-12<br><a href='https://oldnews.peterkrantz.se/post/128'>Ifr\u00e5n G\u00f6teborg den I2. Febr.</a>", "name": "V\u00e4nersborg", "time": "1645-02-12", "url": "https://oldnews.peterkrantz.se/post/128"}}, {"type": "Feature", "geometry": {"type": "Point", "coordinates": [11.584722222222, 57.886388888889]}, "properties": {"description": "Marstrand: 1645-05-25<br><a href='https://oldnews.peterkrantz.se/post/379'>Fr\u00e5n G\u00f6teborg den 24. Maij.</a>", "name": "Marstrand", "time": "1645-05-25", "url": "https://oldnews.peterkrantz.se/post/379"}}, {"type": "Feature", "geometry": {"type": "Point", "coordinates": [14.0, 50.0]}, "properties": {"description": "B\u00f6hmen: 1645-11-20<br><a href='https://oldnews.peterkrantz.se/post/790'>Fr\u00e5n Stettin den 20. Novemb.</a>", "name": "B\u00f6hmen", "time": "1645-11-20", "url": "https://oldnews.peterkrantz.se/post/790"}}, {"type": "Feature", "geometry": {"type": "Point", "coordinates": [11.966666666667, 57.706944444444]}, "properties": {"description": "G\u00f6teborg: 1645-10-29<br><a href='https://oldnews.peterkrantz.se/post/698'>Ordinari Post Tijdender / I645. den 29. Octob. N. 44.</a>", "name": "G\u00f6teborg", "time": "1645-10-29", "url": "https://oldnews.peterkrantz.se/post/698"}}, {"type": "Feature", "geometry": {"type": "Point", "coordinates": [14.15, 56.033333333333]}, "properties": {"description": "Kristianstad: 1645-02-24<br><a href='https://oldnews.peterkrantz.se/post/159'>I fr\u00e5n Ostede den 24. Febr.</a>", "name": "Kristianstad", "time": "1645-02-24", "url": "https://oldnews.peterkrantz.se/post/159"}}, {"type": "Feature", "geometry": {"type": "Point", "coordinates": [11.75, 55.5]}, "properties": {"description": "Sj\u00e4lland: 1645-03-22<br><a href='https://oldnews.peterkrantz.se/post/215'>Ifr\u00e5n Ostede den 22.Martij.</a>", "name": "Sj\u00e4lland", "time": "1645-03-22", "url": "https://oldnews.peterkrantz.se/post/215"}}, {"type": "Feature", "geometry": {"type": "Point", "coordinates": [12.7, 56.05]}, "properties": {"description": "Helsingborg: 1645-07-20<br><a href='https://oldnews.peterkrantz.se/post/518'>Fr\u00e5n Helsingborg den 20. Julij.</a>", "name": "Helsingborg", "time": "1645-07-20", "url": "https://oldnews.peterkrantz.se/post/518"}}, {"type": "Feature", "geometry": {"type": "Point", "coordinates": [6.6413888888889, 49.756666666667]}, "properties": {"description": "Trier: 1645-12-06<br><a href='https://oldnews.peterkrantz.se/post/224'>Fr\u00e5n Hamborg den 6. Decemb.</a>", "name": "Trier", "time": "1645-12-06", "url": "https://oldnews.peterkrantz.se/post/224"}}, {"type": "Feature", "geometry": {"type": "Point", "coordinates": [16.608333333333, 49.195277777778]}, "properties": {"description": "Brno: 1645-09-13<br><a href='https://oldnews.peterkrantz.se/post/634'>Fr\u00e5n Hambrog den I3. Sept.</a>", "name": "Brno", "time": "1645-09-13", "url": "https://oldnews.peterkrantz.se/post/634"}}, {"type": "Feature", "geometry": {"type": "Point", "coordinates": [12.383333333333, 51.333333333333]}, "properties": {"description": "Leipzig: 1645-11-08<br><a href='https://oldnews.peterkrantz.se/post/759'>Fr\u00e5n Leipzig den 8. Novemb.</a>", "name": "Leipzig", "time": "1645-11-08", "url": "https://oldnews.peterkrantz.se/post/759"}}, {"type": "Feature", "geometry": {"type": "Point", "coordinates": [12.621944444444, 56.038611111111]}, "properties": {"description": "Kronborg: 1645-05-17<br><a href='https://oldnews.peterkrantz.se/post/360'>Fr\u00e5n Helsingborg den I7. Maij.</a>", "name": "Kronborg", "time": "1645-05-17", "url": "https://oldnews.peterkrantz.se/post/360"}}, {"type": "Feature", "geometry": {"type": "Point", "coordinates": [12.75, 55.75]}, "properties": {"description": "\u00d6resund: 1645-08-13<br><a href='https://oldnews.peterkrantz.se/post/552'>Fredz Articlar emellan Hans Kongl. Mayestet i Danmarck /   Och  The Herrar General Staterne i the f\u00f6rendade Nederlanden / Slutne den I3. Augusti \u00c5hr I645.</a>", "name": "\u00d6resund", "time": "1645-08-13", "url": "https://oldnews.peterkrantz.se/post/552"}}, {"type": "Feature", "geometry": {"type": "Point", "coordinates": [16.366666666667, 56.666666666667]}, "properties": {"description": "Kalmar: 1645-03-04<br><a href='https://oldnews.peterkrantz.se/post/179'>Fr\u00e5n S\u00f6der\u00c5ker den 4. Martij.</a>", "name": "Kalmar", "time": "1645-03-04", "url": "https://oldnews.peterkrantz.se/post/179"}}, {"type": "Feature", "geometry": {"type": "Point", "coordinates": [10.5, 48.85]}, "properties": {"description": "N\u00f6rdlingen: 1645-08-23<br><a href='https://oldnews.peterkrantz.se/post/601'>Fr\u00e5n Hamborg den 23. Auguszt.</a>", "name": "N\u00f6rdlingen", "time": "1645-08-23", "url": "https://oldnews.peterkrantz.se/post/601"}}, {"type": "Feature", "geometry": {"type": "Point", "coordinates": [13.733333333333, 51.033333333333]}, "properties": {"description": "Dresden: 1645-12-06<br><a href='https://oldnews.peterkrantz.se/post/803'>Fr\u00e5n Leipzig den 6. Decemb.</a>", "name": "Dresden", "time": "1645-12-06", "url": "https://oldnews.peterkrantz.se/post/803"}}, {"type": "Feature", "geometry": {"type": "Point", "coordinates": [11.833333333333, 52.066666666667]}, "properties": {"description": "Gommern: 1645-05-24<br><a href='https://oldnews.peterkrantz.se/post/410'>Fr\u00e5n Leipzig den 24. Maij.</a>", "name": "Gommern", "time": "1645-05-24", "url": "https://oldnews.peterkrantz.se/post/410"}}, {"type": "Feature", "geometry": {"type": "Point", "coordinates": [16.373064, 48.20833]}, "properties": {"description": "Wien: 1645-03-23<br><a href='https://oldnews.peterkrantz.se/post/253'>Fr\u00e5n Leiptzig den 23. Martij.</a>", "name": "Wien", "time": "1645-03-23", "url": "https://oldnews.peterkrantz.se/post/253"}}, {"type": "Feature", "geometry": {"type": "Point", "coordinates": [14.755, 55.270833333333]}, "properties": {"description": "Hammershus: 1645-06-21<br><a href='https://oldnews.peterkrantz.se/post/450'>Ett annat vthur bemelte Hufwudquarter Fielckingen sub dato 2I. Junij.</a>", "name": "Hammershus", "time": "1645-06-21", "url": "https://oldnews.peterkrantz.se/post/450"}}, {"type": "Feature", "geometry": {"type": "Point", "coordinates": [17.112777777778, 48.144722222222]}, "properties": {"description": "Bratislava: 1645-04-19<br><a href='https://oldnews.peterkrantz.se/post/175'>Fr\u00e5n Hamborg den I9. Apr.</a>", "name": "Bratislava", "time": "1645-04-19", "url": "https://oldnews.peterkrantz.se/post/175"}}, {"type": "Feature", "geometry": {"type": "Point", "coordinates": [10.521111111111, 52.269166666667]}, "properties": {"description": "Braunschweig: 1645-11-15<br><a href='https://oldnews.peterkrantz.se/post/766'>Fr\u00e5n Hamborg den I5. Novemb.</a>", "name": "Braunschweig", "time": "1645-11-15", "url": "https://oldnews.peterkrantz.se/post/766"}}, {"type": "Feature", "geometry": {"type": "Point", "coordinates": [12.383333333333, 51.333333333333]}, "properties": {"description": "Leipzig: 1645-03-23<br><a href='https://oldnews.peterkrantz.se/post/253'>Fr\u00e5n Leiptzig den 23. Martij.</a>", "name": "Leipzig", "time": "1645-03-23", "url": "https://oldnews.peterkrantz.se/post/253"}}, {"type": "Feature", "geometry": {"type": "Point", "coordinates": [10.587777777778, 57.722222222222]}, "properties": {"description": "Skagen: 1645-05-21<br><a href='https://oldnews.peterkrantz.se/post/364'>Ett annat fr\u00e5n G\u00f6teborg den 2I. Maij.</a>", "name": "Skagen", "time": "1645-05-21", "url": "https://oldnews.peterkrantz.se/post/364"}}, {"type": "Feature", "geometry": {"type": "Point", "coordinates": [9.4219444444444, 53.791666666667]}, "properties": {"description": "Gl\u00fcckstadt: 1645-12-13<br><a href='https://oldnews.peterkrantz.se/post/632'>Fr\u00e5n Hamborg den I3. Decemb.</a>", "name": "Gl\u00fcckstadt", "time": "1645-12-13", "url": "https://oldnews.peterkrantz.se/post/632"}}, {"type": "Feature", "geometry": {"type": "Point", "coordinates": [15.616666666667, 48.416666666667]}, "properties": {"description": "Krems an der Donau: 1645-04-09<br><a href='https://oldnews.peterkrantz.se/post/288'>Fr\u00e5n Hamborg den 9. April.</a>", "name": "Krems an der Donau", "time": "1645-04-09", "url": "https://oldnews.peterkrantz.se/post/288"}}, {"type": "Feature", "geometry": {"type": "Point", "coordinates": [10.0, 53.55]}, "properties": {"description": "Hamburg: 1645-09-27<br><a href='https://oldnews.peterkrantz.se/post/668'>Fr\u00e5n Hamborg den 27. Sept.</a>", "name": "Hamburg", "time": "1645-09-27", "url": "https://oldnews.peterkrantz.se/post/668"}}, {"type": "Feature", "geometry": {"type": "Point", "coordinates": [15.419166666667, 51.027222222222]}, "properties": {"description": "Gryf\u00f3w \u015al\u0105ski: 1645-11-15<br><a href='https://oldnews.peterkrantz.se/post/768'>Fr\u00e5n Leipzig den I5. Novemb.</a>", "name": "Gryf\u00f3w \u015al\u0105ski", "time": "1645-11-15", "url": "https://oldnews.peterkrantz.se/post/768"}}, {"type": "Feature", "geometry": {"type": "Point", "coordinates": [19.0, 47.0]}, "properties": {"description": "Ungern: 1645-05-17<br><a href='https://oldnews.peterkrantz.se/post/344'>Copia aff Hans Excell. Feltm. Her Linnar Torstensons eghit Breeff skrifwit til \u00d6fwersten Nierod Commendanten i Grosz Glogaw sub dato Mistelbach den 8. Apr. I645 Item.</a>", "name": "Ungern", "time": "1645-05-17", "url": "https://oldnews.peterkrantz.se/post/344"}}, {"type": "Feature", "geometry": {"type": "Point", "coordinates": [14.15, 56.033333333333]}, "properties": {"description": "Kristianstad: 1645-08-25<br><a href='https://oldnews.peterkrantz.se/post/579'>Fr\u00e5n Helsingborg den 25. Dito.</a>", "name": "Kristianstad", "time": "1645-08-25", "url": "https://oldnews.peterkrantz.se/post/579"}}, {"type": "Feature", "geometry": {"type": "Point", "coordinates": [11.966666666667, 57.706944444444]}, "properties": {"description": "G\u00f6teborg: 1645-06-03<br><a href='https://oldnews.peterkrantz.se/post/395'>Fr\u00e5n Helsingborg den 3. Junij.</a>", "name": "G\u00f6teborg", "time": "1645-06-03", "url": "https://oldnews.peterkrantz.se/post/395"}}, {"type": "Feature", "geometry": {"type": "Point", "coordinates": [10.752777777778, 59.911111111111]}, "properties": {"description": "Oslo: 1645-06-02<br><a href='https://oldnews.peterkrantz.se/post/5'>Fr\u00e5n G\u00f6teborg den II. Junij.</a>", "name": "Oslo", "time": "1645-06-02", "url": "https://oldnews.peterkrantz.se/post/5"}}, {"type": "Feature", "geometry": {"type": "Point", "coordinates": [9.9166666666667, 54.983333333333]}, "properties": {"description": "Als: 1645-03-10<br><a href='https://oldnews.peterkrantz.se/post/202'>Ifr\u00e5n Hamborg den I0. Martij.</a>", "name": "Als", "time": "1645-03-10", "url": "https://oldnews.peterkrantz.se/post/202"}}, {"type": "Feature", "geometry": {"type": "Point", "coordinates": [9.8833333333333, 52.2]}, "properties": {"description": "Giesen: 1645-05-30<br><a href='https://oldnews.peterkrantz.se/post/432'>Fr\u00e5n Franckfurth widh Meyn den 30. dito.</a>", "name": "Giesen", "time": "1645-05-30", "url": "https://oldnews.peterkrantz.se/post/432"}}, {"type": "Feature", "geometry": {"type": "Point", "coordinates": [13.594444444444, 56.450833333333]}, "properties": {"description": "Markaryd: 1645-10-28<br><a href='https://oldnews.peterkrantz.se/post/710'>Fr\u00e5n Danske Gr\u00e4ntzen den 28. Octob.</a>", "name": "Markaryd", "time": "1645-10-28", "url": "https://oldnews.peterkrantz.se/post/710"}}, {"type": "Feature", "geometry": {"type": "Point", "coordinates": [14.421388888889, 50.088611111111]}, "properties": {"description": "Prag: 1645-02-26<br><a href='https://oldnews.peterkrantz.se/post/229'>Den 26. Februarij stylo vet.</a>", "name": "Prag", "time": "1645-02-26", "url": "https://oldnews.peterkrantz.se/post/229"}}, {"type": "Feature", "geometry": {"type": "Point", "coordinates": [2.7256, 50.8547]}, "properties": {"description": "Poperinge: 1645-11-25<br><a href='https://oldnews.peterkrantz.se/post/777'>Fr\u00e5n Amsterdam den 25. Novemb. st. no.</a>", "name": "Poperinge", "time": "1645-11-25", "url": "https://oldnews.peterkrantz.se/post/777"}}, {"type": "Feature", "geometry": {"type": "Point", "coordinates": [11.916666666667, 58.35]}, "properties": {"description": "Uddevalla: 1645-02-19<br><a href='https://oldnews.peterkrantz.se/post/157'>Extract aff een Skrifwelse daterat i Holm Sochn i  Nordals H\u00e4radh p\u00e5 Daal den I9 Febr.</a>", "name": "Uddevalla", "time": "1645-02-19", "url": "https://oldnews.peterkrantz.se/post/157"}}, {"type": "Feature", "geometry": {"type": "Point", "coordinates": [11.966666666667, 57.706944444444]}, "properties": {"description": "G\u00f6teborg: 1645-10-29<br><a href='https://oldnews.peterkrantz.se/post/716'>Fr\u00e5n G\u00f6teborg den 29. Octob.</a>", "name": "G\u00f6teborg", "time": "1645-10-29", "url": "https://oldnews.peterkrantz.se/post/716"}}, {"type": "Feature", "geometry": {"type": "Point", "coordinates": [12.616666666667, 56.033333333333]}, "properties": {"description": "Helsing\u00f6r: 1645-08-04<br><a href='https://oldnews.peterkrantz.se/post/330'>Fr\u00e5n Helsingborg den 4. Dito.</a>", "name": "Helsing\u00f6r", "time": "1645-08-04", "url": "https://oldnews.peterkrantz.se/post/330"}}, {"type": "Feature", "geometry": {"type": "Point", "coordinates": [7.6333333333333, 51.966666666667]}, "properties": {"description": "M\u00fcnster: 1645-01-02<br><a href='https://oldnews.peterkrantz.se/post/87'>Fr\u00e5n Osznabrygge den 2. Janu.</a>", "name": "M\u00fcnster", "time": "1645-01-02", "url": "https://oldnews.peterkrantz.se/post/87"}}, {"type": "Feature", "geometry": {"type": "Point", "coordinates": [13.820833333333, 55.430555555556]}, "properties": {"description": "Ystad: 1645-02-27<br><a href='https://oldnews.peterkrantz.se/post/185'>Fr\u00e5n Dstede den 27. Febr.</a>", "name": "Ystad", "time": "1645-02-27", "url": "https://oldnews.peterkrantz.se/post/185"}}, {"type": "Feature", "geometry": {"type": "Point", "coordinates": [12.866666666667, 56.241666666667]}, "properties": {"description": "\u00c4ngelholm: 1645-11-19<br><a href='https://oldnews.peterkrantz.se/post/786'>Fr\u00e5n Marckarydh den I9. Novemb.</a>", "name": "\u00c4ngelholm", "time": "1645-11-19", "url": "https://oldnews.peterkrantz.se/post/786"}}, {"type": "Feature", "geometry": {"type": "Point", "coordinates": [12.568888888889, 55.676111111111]}, "properties": {"description": "K\u00f6penhamn: 1645-06-21<br><a href='https://oldnews.peterkrantz.se/post/454'>Fr\u00e5n Helsingborg den 2I. Junij.</a>", "name": "K\u00f6penhamn", "time": "1645-06-21", "url": "https://oldnews.peterkrantz.se/post/454"}}, {"type": "Feature", "geometry": {"type": "Point", "coordinates": [13.7394, 51.0488]}, "properties": {"description": "Kreuzkirche: 1645-09-10<br><a href='https://oldnews.peterkrantz.se/post/682'>Fr\u00e5n Dreszden den I0. Sept.</a>", "name": "Kreuzkirche", "time": "1645-09-10", "url": "https://oldnews.peterkrantz.se/post/682"}}, {"type": "Feature", "geometry": {"type": "Point", "coordinates": [9.6, 53.616666666667]}, "properties": {"description": "Haseldorf: 1645-02-19<br><a href='https://oldnews.peterkrantz.se/post/174'>Fr\u00e5 Hamborg den I9. Febr.</a>", "name": "Haseldorf", "time": "1645-02-19", "url": "https://oldnews.peterkrantz.se/post/174"}}, {"type": "Feature", "geometry": {"type": "Point", "coordinates": [11.966666666667, 57.706944444444]}, "properties": {"description": "G\u00f6teborg: 1645-04-02<br><a href='https://oldnews.peterkrantz.se/post/143'>Fr\u00e5n G\u00f6teborg den 2. April.</a>", "name": "G\u00f6teborg", "time": "1645-04-02", "url": "https://oldnews.peterkrantz.se/post/143"}}, {"type": "Feature", "geometry": {"type": "Point", "coordinates": [2.6166666666667, 50.622777777778]}, "properties": {"description": "Calonne-sur-la-Lys: 1645-08-30<br><a href='https://oldnews.peterkrantz.se/post/611'>Fr\u00e5n Hamborg den 30 Aug.</a>", "name": "Calonne-sur-la-Lys", "time": "1645-08-30", "url": "https://oldnews.peterkrantz.se/post/611"}}, {"type": "Feature", "geometry": {"type": "Point", "coordinates": [10.8, 48.7]}, "properties": {"description": "Donauw\u00f6rth: 1645-09-27<br><a href='https://oldnews.peterkrantz.se/post/668'>Fr\u00e5n Hamborg den 27. Sept.</a>", "name": "Donauw\u00f6rth", "time": "1645-09-27", "url": "https://oldnews.peterkrantz.se/post/668"}}, {"type": "Feature", "geometry": {"type": "Point", "coordinates": [14.916666666667, 55.125]}, "properties": {"description": "Bornholm: 1645-06-22<br><a href='https://oldnews.peterkrantz.se/post/471'>Fr\u00e5n Hammershus p\u00e5 Bornholm den 22. Junij.</a>", "name": "Bornholm", "time": "1645-06-22", "url": "https://oldnews.peterkrantz.se/post/471"}}, {"type": "Feature", "geometry": {"type": "Point", "coordinates": [10.414444444444, 53.2525]}, "properties": {"description": "L\u00fcneburg: 1645-10-11<br><a href='https://oldnews.peterkrantz.se/post/706'>Fr\u00e5n Hamborg den II. Octob.</a>", "name": "L\u00fcneburg", "time": "1645-10-11", "url": "https://oldnews.peterkrantz.se/post/706"}}, {"type": "Feature", "geometry": {"type": "Point", "coordinates": [17.03533, 51.10773]}, "properties": {"description": "Wroc\u0142aw: 1645-05-28<br><a href='https://oldnews.peterkrantz.se/post/385'>Fr\u00e5n Hamborg den 28. Maij.</a>", "name": "Wroc\u0142aw", "time": "1645-05-28", "url": "https://oldnews.peterkrantz.se/post/385"}}, {"type": "Feature", "geometry": {"type": "Point", "coordinates": [13.0, 55.605555555556]}, "properties": {"description": "Malm\u00f6: 1645-02-24<br><a href='https://oldnews.peterkrantz.se/post/159'>I fr\u00e5n Ostede den 24. Febr.</a>", "name": "Malm\u00f6", "time": "1645-02-24", "url": "https://oldnews.peterkrantz.se/post/159"}}, {"type": "Feature", "geometry": {"type": "Point", "coordinates": [11.966666666667, 57.706944444444]}, "properties": {"description": "G\u00f6teborg: 1645-08-09<br><a href='https://oldnews.peterkrantz.se/post/560'>Fr\u00e5n G\u00f6teborg den 9. Augusti.</a>", "name": "G\u00f6teborg", "time": "1645-08-09", "url": "https://oldnews.peterkrantz.se/post/560"}}, {"type": "Feature", "geometry": {"type": "Point", "coordinates": [15.766666666667, 50.016666666667]}, "properties": {"description": "Pardubice: 1645-11-08<br><a href='https://oldnews.peterkrantz.se/post/744'>Fr\u00e5n Hamborg den 8. Novemb.</a>", "name": "Pardubice", "time": "1645-11-08", "url": "https://oldnews.peterkrantz.se/post/744"}}, {"type": "Feature", "geometry": {"type": "Point", "coordinates": [12.85, 56.666666666667]}, "properties": {"description": "Halmstad: 1645-07-05<br><a href='https://oldnews.peterkrantz.se/post/284'>Fr\u00e5n G\u00f6teborg den 5. Julij.</a>", "name": "Halmstad", "time": "1645-07-05", "url": "https://oldnews.peterkrantz.se/post/284"}}, {"type": "Feature", "geometry": {"type": "Point", "coordinates": [9.9130555555556, 53.699166666667]}, "properties": {"description": "Hasloh: 1645-02-26<br><a href='https://oldnews.peterkrantz.se/post/192'>Ifr\u00e5n Wismar den 26.Febr.</a>", "name": "Hasloh", "time": "1645-02-26", "url": "https://oldnews.peterkrantz.se/post/192"}}, {"type": "Feature", "geometry": {"type": "Point", "coordinates": [4.4, 51.216666666667]}, "properties": {"description": "Antwerpen: 1645-12-16<br><a href='https://oldnews.peterkrantz.se/post/205'>Fr\u00e5n Amsterdam den I6. Decemb.</a>", "name": "Antwerpen", "time": "1645-12-16", "url": "https://oldnews.peterkrantz.se/post/205"}}, {"type": "Feature", "geometry": {"type": "Point", "coordinates": [4.9, 52.383333333333]}, "properties": {"description": "Amsterdam: 1645-11-09<br><a href='https://oldnews.peterkrantz.se/post/738'>Fr\u00e5n Amstendam den 9. Nov. st. no.</a>", "name": "Amsterdam", "time": "1645-11-09", "url": "https://oldnews.peterkrantz.se/post/738"}}, {"type": "Feature", "geometry": {"type": "Point", "coordinates": [3.22, 51.209444444444]}, "properties": {"description": "Brygge: 1645-09-30<br><a href='https://oldnews.peterkrantz.se/post/663'>Fr\u00e5n Amsterdam den 30. Sep.</a>", "name": "Brygge", "time": "1645-09-30", "url": "https://oldnews.peterkrantz.se/post/663"}}, {"type": "Feature", "geometry": {"type": "Point", "coordinates": [12.568888888889, 55.676111111111]}, "properties": {"description": "K\u00f6penhamn: 1645-11-19<br><a href='https://oldnews.peterkrantz.se/post/786'>Fr\u00e5n Marckarydh den I9. Novemb.</a>", "name": "K\u00f6penhamn", "time": "1645-11-19", "url": "https://oldnews.peterkrantz.se/post/786"}}, {"type": "Feature", "geometry": {"type": "Point", "coordinates": [4.10333, 51.30344]}, "properties": {"description": "Fort Zandberg: 1645-10-14<br><a href='https://oldnews.peterkrantz.se/post/708'>Fr\u00e5n Amsterdam den I4. Octob.</a>", "name": "Fort Zandberg", "time": "1645-10-14", "url": "https://oldnews.peterkrantz.se/post/708"}}, {"type": "Feature", "geometry": {"type": "Point", "coordinates": [13.4775, 51.163611111111]}, "properties": {"description": "Meissen: 1645-08-16<br><a href='https://oldnews.peterkrantz.se/post/599'>Fr\u00e5n Leipzig den I6 Aug</a>", "name": "Meissen", "time": "1645-08-16", "url": "https://oldnews.peterkrantz.se/post/599"}}, {"type": "Feature", "geometry": {"type": "Point", "coordinates": [13.25, 59.75]}, "properties": {"description": "V\u00e4rmland: 1645-09-28<br><a href='https://oldnews.peterkrantz.se/post/627'>Fr\u00e5n \u00d6rebroo den 28 Sept.</a>", "name": "V\u00e4rmland", "time": "1645-09-28", "url": "https://oldnews.peterkrantz.se/post/627"}}, {"type": "Feature", "geometry": {"type": "Point", "coordinates": [3.0575, 50.631944444444]}, "properties": {"description": "Lille: 1645-08-30<br><a href='https://oldnews.peterkrantz.se/post/611'>Fr\u00e5n Hamborg den 30 Aug.</a>", "name": "Lille", "time": "1645-08-30", "url": "https://oldnews.peterkrantz.se/post/611"}}, {"type": "Feature", "geometry": {"type": "Point", "coordinates": [16.373064, 48.20833]}, "properties": {"description": "Wien: 1645-03-20<br><a href='https://oldnews.peterkrantz.se/post/274'>Uthur Dreszden aff den 20. Martij.</a>", "name": "Wien", "time": "1645-03-20", "url": "https://oldnews.peterkrantz.se/post/274"}}, {"type": "Feature", "geometry": {"type": "Point", "coordinates": [11.355555555556, 53.048055555556]}, "properties": {"description": "Gorleben: 1645-10-25<br><a href='https://oldnews.peterkrantz.se/post/725'>Fr\u00e5n Hamborg den 25 Octob.</a>", "name": "Gorleben", "time": "1645-10-25", "url": "https://oldnews.peterkrantz.se/post/725"}}, {"type": "Feature", "geometry": {"type": "Point", "coordinates": [7.895, 49.966944444444]}, "properties": {"description": "Bingen am Rhein: 1645-11-08<br><a href='https://oldnews.peterkrantz.se/post/744'>Fr\u00e5n Hamborg den 8. Novemb.</a>", "name": "Bingen am Rhein", "time": "1645-11-08", "url": "https://oldnews.peterkrantz.se/post/744"}}, {"type": "Feature", "geometry": {"type": "Point", "coordinates": [17.260277777778, 49.596111111111]}, "properties": {"description": "Olomouc: 1645-09-27<br><a href='https://oldnews.peterkrantz.se/post/684'>Fr\u00e5n Leipzig den 27. Sept.</a>", "name": "Olomouc", "time": "1645-09-27", "url": "https://oldnews.peterkrantz.se/post/684"}}, {"type": "Feature", "geometry": {"type": "Point", "coordinates": [15.166666666667, 47.25]}, "properties": {"description": "Steiermark: 1645-05-01<br><a href='https://oldnews.peterkrantz.se/post/322'>Fr\u00e5n Hamborg den I. Maij.</a>", "name": "Steiermark", "time": "1645-05-01", "url": "https://oldnews.peterkrantz.se/post/322"}}, {"type": "Feature", "geometry": {"type": "Point", "coordinates": [10.0, 53.55]}, "properties": {"description": "Hamburg: 1645-07-05<br><a href='https://oldnews.peterkrantz.se/post/510'>Fr\u00e5n Hamborg den 5. Julij.</a>", "name": "Hamburg", "time": "1645-07-05", "url": "https://oldnews.peterkrantz.se/post/510"}}, {"type": "Feature", "geometry": {"type": "Point", "coordinates": [10.0, 56.0]}, "properties": {"description": "Danmark: 1645-02-26<br><a href='https://oldnews.peterkrantz.se/post/194'>Ifr\u00e5n Amsterdam den 26.Febr.ft.no</a>", "name": "Danmark", "time": "1645-02-26", "url": "https://oldnews.peterkrantz.se/post/194"}}, {"type": "Feature", "geometry": {"type": "Point", "coordinates": [16.637789181722, 48.805586996193]}, "properties": {"description": "Mikulov: 1645-05-28<br><a href='https://oldnews.peterkrantz.se/post/385'>Fr\u00e5n Hamborg den 28. Maij.</a>", "name": "Mikulov", "time": "1645-05-28", "url": "https://oldnews.peterkrantz.se/post/385"}}, {"type": "Feature", "geometry": {"type": "Point", "coordinates": [12.666666666667, 55.583333333333]}, "properties": {"description": "Drag\u00f8r: 1645-08-04<br><a href='https://oldnews.peterkrantz.se/post/330'>Fr\u00e5n Helsingborg den 4. Dito.</a>", "name": "Drag\u00f8r", "time": "1645-08-04", "url": "https://oldnews.peterkrantz.se/post/330"}}, {"type": "Feature", "geometry": {"type": "Point", "coordinates": [-3.0, 40.0]}, "properties": {"description": "Spanien: 1645-02-26<br><a href='https://oldnews.peterkrantz.se/post/194'>Ifr\u00e5n Amsterdam den 26.Febr.ft.no</a>", "name": "Spanien", "time": "1645-02-26", "url": "https://oldnews.peterkrantz.se/post/194"}}, {"type": "Feature", "geometry": {"type": "Point", "coordinates": [9.6644444444444, 54.304444444444]}, "properties": {"description": "Rendsburg: 1645-05-01<br><a href='https://oldnews.peterkrantz.se/post/324'>Ett annat ifr\u00e5n Hamborg aff samma dato.</a>", "name": "Rendsburg", "time": "1645-05-01", "url": "https://oldnews.peterkrantz.se/post/324"}}, {"type": "Feature", "geometry": {"type": "Point", "coordinates": [2.2608333333333, 50.748333333333]}, "properties": {"description": "Saint-Omer: 1645-06-17<br><a href='https://oldnews.peterkrantz.se/post/463'>Fr\u00e5n Amsterdam den I7. Junij.</a>", "name": "Saint-Omer", "time": "1645-06-17", "url": "https://oldnews.peterkrantz.se/post/463"}}, {"type": "Feature", "geometry": {"type": "Point", "coordinates": [13.594444444444, 56.450833333333]}, "properties": {"description": "Markaryd: 1645-09-24<br><a href='https://oldnews.peterkrantz.se/post/623'>Fr\u00e5n Marckarydh den 24. Sept</a>", "name": "Markaryd", "time": "1645-09-24", "url": "https://oldnews.peterkrantz.se/post/623"}}, {"type": "Feature", "geometry": {"type": "Point", "coordinates": [14.657835974031, 49.414485338494]}, "properties": {"description": "T\u00e1bor: 1645-04-19<br><a href='https://oldnews.peterkrantz.se/post/310'>Fr\u00e5n Hamborg den I9. Apr.</a>", "name": "T\u00e1bor", "time": "1645-04-19", "url": "https://oldnews.peterkrantz.se/post/310"}}, {"type": "Feature", "geometry": {"type": "Point", "coordinates": [9.8, 53.633333333333]}, "properties": {"description": "Pinneberg: 1645-02-09<br><a href='https://oldnews.peterkrantz.se/post/119'>Fr\u00e5n Wiszmar den 9 Febr. I645.</a>", "name": "Pinneberg", "time": "1645-02-09", "url": "https://oldnews.peterkrantz.se/post/119"}}, {"type": "Feature", "geometry": {"type": "Point", "coordinates": [4.4, 51.216666666667]}, "properties": {"description": "Antwerpen: 1645-10-04<br><a href='https://oldnews.peterkrantz.se/post/696'>Fr\u00e5n Hamborg den 4.Octob.</a>", "name": "Antwerpen", "time": "1645-10-04", "url": "https://oldnews.peterkrantz.se/post/696"}}, {"type": "Feature", "geometry": {"type": "Point", "coordinates": [16.0, 56.3]}, "properties": {"description": "Br\u00f6msebro: 1645-02-25<br><a href='https://oldnews.peterkrantz.se/post/170'>Ifr\u00e5n Helsingborg den 25 Febr.</a>", "name": "Br\u00f6msebro", "time": "1645-02-25", "url": "https://oldnews.peterkrantz.se/post/170"}}, {"type": "Feature", "geometry": {"type": "Point", "coordinates": [13.733333333333, 51.033333333333]}, "properties": {"description": "Dresden: 1645-10-25<br><a href='https://oldnews.peterkrantz.se/post/736'>Fr\u00e5n Leipzig den 25. Octob.</a>", "name": "Dresden", "time": "1645-10-25", "url": "https://oldnews.peterkrantz.se/post/736"}}, {"type": "Feature", "geometry": {"type": "Point", "coordinates": [15.216666666667, 59.266666666667]}, "properties": {"description": "\u00d6rebro: 1645-10-05<br><a href='https://oldnews.peterkrantz.se/post/642'>Fr\u00e5n \u00d6rebroo den 5. Octob.</a>", "name": "\u00d6rebro", "time": "1645-10-05", "url": "https://oldnews.peterkrantz.se/post/642"}}, {"type": "Feature", "geometry": {"type": "Point", "coordinates": [31.09472, 70.37222]}, "properties": {"description": "Vard\u00f8hus f\u00e4stning: 1645-06-11<br><a href='https://oldnews.peterkrantz.se/post/416'>Fr\u00e5n G\u00f6teborg den II. Junij.</a>", "name": "Vard\u00f8hus f\u00e4stning", "time": "1645-06-11", "url": "https://oldnews.peterkrantz.se/post/416"}}, {"type": "Feature", "geometry": {"type": "Point", "coordinates": [10.5, 48.85]}, "properties": {"description": "N\u00f6rdlingen: 1645-08-17<br><a href='https://oldnews.peterkrantz.se/post/575'>Fr\u00e5n Stralsund den I7. August.</a>", "name": "N\u00f6rdlingen", "time": "1645-08-17", "url": "https://oldnews.peterkrantz.se/post/575"}}, {"type": "Feature", "geometry": {"type": "Point", "coordinates": [13.833333333333, 46.616666666667]}, "properties": {"description": "Villach: 1645-03-19<br><a href='https://oldnews.peterkrantz.se/post/221'>Fr\u00e5n Hamborg den I9. Martij.</a>", "name": "Villach", "time": "1645-03-19", "url": "https://oldnews.peterkrantz.se/post/221"}}, {"type": "Feature", "geometry": {"type": "Point", "coordinates": [16.066666666667, 56.45]}, "properties": {"description": "S\u00f6der\u00e5kra: 1645-04-09<br><a href='https://oldnews.peterkrantz.se/post/257'>Fr\u00e5n Calmar den 9. April.</a>", "name": "S\u00f6der\u00e5kra", "time": "1645-04-09", "url": "https://oldnews.peterkrantz.se/post/257"}}, {"type": "Feature", "geometry": {"type": "Point", "coordinates": [16.608333333333, 49.195277777778]}, "properties": {"description": "Brno: 1645-06-28<br><a href='https://oldnews.peterkrantz.se/post/491'>Fr\u00e5n Hamborg den 28. Junij.</a>", "name": "Brno", "time": "1645-06-28", "url": "https://oldnews.peterkrantz.se/post/491"}}, {"type": "Feature", "geometry": {"type": "Point", "coordinates": [12.85, 56.666666666667]}, "properties": {"description": "Halmstad: 1645-02-01<br><a href='https://oldnews.peterkrantz.se/post/16'>Ifr\u00e5n Marckarydh den 1. Feb. A. 1645</a>", "name": "Halmstad", "time": "1645-02-01", "url": "https://oldnews.peterkrantz.se/post/16"}}, {"type": "Feature", "geometry": {"type": "Point", "coordinates": [10.0, 53.55]}, "properties": {"description": "Hamburg: 1645-10-18<br><a href='https://oldnews.peterkrantz.se/post/772'>Fr\u00e5n Hamborg den I8. Octob.</a>", "name": "Hamburg", "time": "1645-10-18", "url": "https://oldnews.peterkrantz.se/post/772"}}, {"type": "Feature", "geometry": {"type": "Point", "coordinates": [3.175, 42.263333]}, "properties": {"description": "Roses: 1645-04-19<br><a href='https://oldnews.peterkrantz.se/post/310'>Fr\u00e5n Hamborg den I9. Apr.</a>", "name": "Roses", "time": "1645-04-19", "url": "https://oldnews.peterkrantz.se/post/310"}}, {"type": "Feature", "geometry": {"type": "Point", "coordinates": [14.421388888889, 50.088611111111]}, "properties": {"description": "Prag: 1645-04-14<br><a href='https://oldnews.peterkrantz.se/post/145'>Fr\u00e5n Dantzigh den I4. April. st. no</a>", "name": "Prag", "time": "1645-04-14", "url": "https://oldnews.peterkrantz.se/post/145"}}, {"type": "Feature", "geometry": {"type": "Point", "coordinates": [13.29508891337, 49.395625338265]}, "properties": {"description": "Klatovy: 1645-11-29<br><a href='https://oldnews.peterkrantz.se/post/799'>Fr\u00e5n Leipzig den 29. Novemb.</a>", "name": "Klatovy", "time": "1645-11-29", "url": "https://oldnews.peterkrantz.se/post/799"}}, {"type": "Feature", "geometry": {"type": "Point", "coordinates": [8.0430555555556, 52.278888888889]}, "properties": {"description": "Osnabr\u00fcck: 1645-12-16<br><a href='https://oldnews.peterkrantz.se/post/205'>Fr\u00e5n Amsterdam den I6. Decemb.</a>", "name": "Osnabr\u00fcck", "time": "1645-12-16", "url": "https://oldnews.peterkrantz.se/post/205"}}, {"type": "Feature", "geometry": {"type": "Point", "coordinates": [14.716666666667, 51.953333333333]}, "properties": {"description": "Guben: 1645-06-07<br><a href='https://oldnews.peterkrantz.se/post/418'>Fr\u00e5n Leipzig den 7. Junij.</a>", "name": "Guben", "time": "1645-06-07", "url": "https://oldnews.peterkrantz.se/post/418"}}, {"type": "Feature", "geometry": {"type": "Point", "coordinates": [13.594444444444, 56.450833333333]}, "properties": {"description": "Markaryd: 1645-09-13<br><a href='https://oldnews.peterkrantz.se/post/613'>Fr\u00e5n Marckarydh den I3. Sept.</a>", "name": "Markaryd", "time": "1645-09-13", "url": "https://oldnews.peterkrantz.se/post/613"}}, {"type": "Feature", "geometry": {"type": "Point", "coordinates": [19.0, 47.0]}, "properties": {"description": "Ungern: 1644-12-05<br><a href='https://oldnews.peterkrantz.se/post/73'>Ifr\u00e5n Wien den 5. Dito</a>", "name": "Ungern", "time": "1644-12-05", "url": "https://oldnews.peterkrantz.se/post/73"}}, {"type": "Feature", "geometry": {"type": "Point", "coordinates": [11.75, 55.5]}, "properties": {"description": "Sj\u00e4lland: 1645-02-25<br><a href='https://oldnews.peterkrantz.se/post/170'>Ifr\u00e5n Helsingborg den 25 Febr.</a>", "name": "Sj\u00e4lland", "time": "1645-02-25", "url": "https://oldnews.peterkrantz.se/post/170"}}, {"type": "Feature", "geometry": {"type": "Point", "coordinates": [13.083333333333, 54.3]}, "properties": {"description": "Stralsund: 1645-11-20<br><a href='https://oldnews.peterkrantz.se/post/790'>Fr\u00e5n Stettin den 20. Novemb.</a>", "name": "Stralsund", "time": "1645-11-20", "url": "https://oldnews.peterkrantz.se/post/790"}}, {"type": "Feature", "geometry": {"type": "Point", "coordinates": [12.25, 57.105555555556]}, "properties": {"description": "Varberg: 1645-07-16<br><a href='https://oldnews.peterkrantz.se/post/506'>Fr\u00e5n G\u00f6teborg den I6. Julij.</a>", "name": "Varberg", "time": "1645-07-16", "url": "https://oldnews.peterkrantz.se/post/506"}}, {"type": "Feature", "geometry": {"type": "Point", "coordinates": [2.2125, 50.833055555556]}, "properties": {"description": "Watten: 1645-06-17<br><a href='https://oldnews.peterkrantz.se/post/463'>Fr\u00e5n Amsterdam den I7. Junij.</a>", "name": "Watten", "time": "1645-06-17", "url": "https://oldnews.peterkrantz.se/post/463"}}, {"type": "Feature", "geometry": {"type": "Point", "coordinates": [12.25, 57.105555555556]}, "properties": {"description": "Varberg: 1645-10-01<br><a href='https://oldnews.peterkrantz.se/post/638'>Fr\u00e5n Gi\u00f6teborgh den I. Octob.</a>", "name": "Varberg", "time": "1645-10-01", "url": "https://oldnews.peterkrantz.se/post/638"}}, {"type": "Feature", "geometry": {"type": "Point", "coordinates": [8.9666666666667, 50.966666666667]}, "properties": {"description": "Gem\u00fcnden: 1645-05-31<br><a href='https://oldnews.peterkrantz.se/post/428'>Fr\u00e5n Cassel i Hessen den 3I. Maij.</a>", "name": "Gem\u00fcnden", "time": "1645-05-31", "url": "https://oldnews.peterkrantz.se/post/428"}}, {"type": "Feature", "geometry": {"type": "Point", "coordinates": [10.0, 53.55]}, "properties": {"description": "Hamburg: 1645-11-15<br><a href='https://oldnews.peterkrantz.se/post/768'>Fr\u00e5n Leipzig den I5. Novemb.</a>", "name": "Hamburg", "time": "1645-11-15", "url": "https://oldnews.peterkrantz.se/post/768"}}, {"type": "Feature", "geometry": {"type": "Point", "coordinates": [12.2415666667, 57.1043]}, "properties": {"description": "Varbergs f\u00e4stning: 1645-09-16<br><a href='https://oldnews.peterkrantz.se/post/617'>Fr\u00e5n Wardberg i Halland den I6 Sept.</a>", "name": "Varbergs f\u00e4stning", "time": "1645-09-16", "url": "https://oldnews.peterkrantz.se/post/617"}}, {"type": "Feature", "geometry": {"type": "Point", "coordinates": [2.3763888888889, 51.037777777778]}, "properties": {"description": "Dunkerque: 1645-10-29<br><a href='https://oldnews.peterkrantz.se/post/716'>Fr\u00e5n G\u00f6teborg den 29. Octob.</a>", "name": "Dunkerque", "time": "1645-10-29", "url": "https://oldnews.peterkrantz.se/post/716"}}, {"type": "Feature", "geometry": {"type": "Point", "coordinates": [12.616666666667, 56.033333333333]}, "properties": {"description": "Helsing\u00f6r: 1645-08-25<br><a href='https://oldnews.peterkrantz.se/post/581'>Fr\u00e5n Helsingborg den 25. Dito.</a>", "name": "Helsing\u00f6r", "time": "1645-08-25", "url": "https://oldnews.peterkrantz.se/post/581"}}, {"type": "Feature", "geometry": {"type": "Point", "coordinates": [12.85, 56.666666666667]}, "properties": {"description": "Halmstad: 1645-09-24<br><a href='https://oldnews.peterkrantz.se/post/623'>Fr\u00e5n Marckarydh den 24. Sept</a>", "name": "Halmstad", "time": "1645-09-24", "url": "https://oldnews.peterkrantz.se/post/623"}}, {"type": "Feature", "geometry": {"type": "Point", "coordinates": [11.584722222222, 57.886388888889]}, "properties": {"description": "Marstrand: 1645-04-23<br><a href='https://oldnews.peterkrantz.se/post/302'>Fr\u00e5n G\u00f6teborg den 23. Aprilis.</a>", "name": "Marstrand", "time": "1645-04-23", "url": "https://oldnews.peterkrantz.se/post/302"}}, {"type": "Feature", "geometry": {"type": "Point", "coordinates": [8.5911111111111, 50.666111111111]}, "properties": {"description": "Hessen: 1645-10-18<br><a href='https://oldnews.peterkrantz.se/post/772'>Fr\u00e5n Hamborg den I8. Octob.</a>", "name": "Hessen", "time": "1645-10-18", "url": "https://oldnews.peterkrantz.se/post/772"}}, {"type": "Feature", "geometry": {"type": "Point", "coordinates": [0.63333333333333, 41.616666666667]}, "properties": {"description": "Lleida: 1645-07-05<br><a href='https://oldnews.peterkrantz.se/post/510'>Fr\u00e5n Hamborg den 5. Julij.</a>", "name": "Lleida", "time": "1645-07-05", "url": "https://oldnews.peterkrantz.se/post/510"}}, {"type": "Feature", "geometry": {"type": "Point", "coordinates": [3.7166666666667, 51.05]}, "properties": {"description": "Gent: 1645-10-14<br><a href='https://oldnews.peterkrantz.se/post/708'>Fr\u00e5n Amsterdam den I4. Octob.</a>", "name": "Gent", "time": "1645-10-14", "url": "https://oldnews.peterkrantz.se/post/708"}}, {"type": "Feature", "geometry": {"type": "Point", "coordinates": [7.895, 49.966944444444]}, "properties": {"description": "Bingen am Rhein: 1645-11-01<br><a href='https://oldnews.peterkrantz.se/post/734'>Fr\u00e5n Hamborg den I Novemb.</a>", "name": "Bingen am Rhein", "time": "1645-11-01", "url": "https://oldnews.peterkrantz.se/post/734"}}, {"type": "Feature", "geometry": {"type": "Point", "coordinates": [13.820833333333, 55.430555555556]}, "properties": {"description": "Ystad: 1645-03-08<br><a href='https://oldnews.peterkrantz.se/post/198'>Ifr\u00e5n Dstede den 8.Martij.</a>", "name": "Ystad", "time": "1645-03-08", "url": "https://oldnews.peterkrantz.se/post/198"}}, {"type": "Feature", "geometry": {"type": "Point", "coordinates": [12.383333333333, 51.333333333333]}, "properties": {"description": "Leipzig: 1645-06-21<br><a href='https://oldnews.peterkrantz.se/post/493'>Fr\u00e5n Leipzig den 2I. Junij.</a>", "name": "Leipzig", "time": "1645-06-21", "url": "https://oldnews.peterkrantz.se/post/493"}}, {"type": "Feature", "geometry": {"type": "Point", "coordinates": [11.966666666667, 57.706944444444]}, "properties": {"description": "G\u00f6teborg: 1645-05-07<br><a href='https://oldnews.peterkrantz.se/post/338'>Ifr\u00e5n G\u00f6teborg den 7. Maij.</a>", "name": "G\u00f6teborg", "time": "1645-05-07", "url": "https://oldnews.peterkrantz.se/post/338"}}, {"type": "Feature", "geometry": {"type": "Point", "coordinates": [16.73762221643, 48.940871942774]}, "properties": {"description": "Hustope\u010de: 1645-07-09<br><a href='https://oldnews.peterkrantz.se/post/595'>Extract Skrifwelse vthur Hans Excell. Feltm. Her Linnar  Torstensons Hufwud quarteer f\u00f6r Brin den 9 Julij.</a>", "name": "Hustope\u010de", "time": "1645-07-09", "url": "https://oldnews.peterkrantz.se/post/595"}}, {"type": "Feature", "geometry": {"type": "Point", "coordinates": [16.366666666667, 56.666666666667]}, "properties": {"description": "Kalmar: 1645-10-24<br><a href='https://oldnews.peterkrantz.se/post/714'>Fr\u00e5n Gottland den 24. Octob.</a>", "name": "Kalmar", "time": "1645-10-24", "url": "https://oldnews.peterkrantz.se/post/714"}}, {"type": "Feature", "geometry": {"type": "Point", "coordinates": [2.0, 47.0]}, "properties": {"description": "Frankrike: 1645-10-18<br><a href='https://oldnews.peterkrantz.se/post/772'>Fr\u00e5n Hamborg den I8. Octob.</a>", "name": "Frankrike", "time": "1645-10-18", "url": "https://oldnews.peterkrantz.se/post/772"}}, {"type": "Feature", "geometry": {"type": "Point", "coordinates": [20.2775, 45.138055555556]}, "properties": {"description": "Tisza: 1645-02-09<br><a href='https://oldnews.peterkrantz.se/post/119'>Fr\u00e5n Wiszmar den 9 Febr. I645.</a>", "name": "Tisza", "time": "1645-02-09", "url": "https://oldnews.peterkrantz.se/post/119"}}, {"type": "Feature", "geometry": {"type": "Point", "coordinates": [16.366666666667, 56.666666666667]}, "properties": {"description": "Kalmar: 1645-04-26<br><a href='https://oldnews.peterkrantz.se/post/315'>Fr\u00e5n G\u00f6teborg den 26. Apr.</a>", "name": "Kalmar", "time": "1645-04-26", "url": "https://oldnews.peterkrantz.se/post/315"}}, {"type": "Feature", "geometry": {"type": "Point", "coordinates": [3.22, 51.209444444444]}, "properties": {"description": "Brygge: 1645-10-14<br><a href='https://oldnews.peterkrantz.se/post/708'>Fr\u00e5n Amsterdam den I4. Octob.</a>", "name": "Brygge", "time": "1645-10-14", "url": "https://oldnews.peterkrantz.se/post/708"}}, {"type": "Feature", "geometry": {"type": "Point", "coordinates": [12.966666666667, 56.366666666667]}, "properties": {"description": "Hallands\u00e5sen: 1645-05-15<br><a href='https://oldnews.peterkrantz.se/post/376'>Fr\u00e5n Markarydh den I5. Maij.</a>", "name": "Hallands\u00e5sen", "time": "1645-05-15", "url": "https://oldnews.peterkrantz.se/post/376"}}, {"type": "Feature", "geometry": {"type": "Point", "coordinates": [9.6644444444444, 54.304444444444]}, "properties": {"description": "Rendsburg: 1645-06-21<br><a href='https://oldnews.peterkrantz.se/post/477'>Fr\u00e5n Hamborg den 2I. Junij.</a>", "name": "Rendsburg", "time": "1645-06-21", "url": "https://oldnews.peterkrantz.se/post/477"}}, {"type": "Feature", "geometry": {"type": "Point", "coordinates": [13.1194, 54.5931]}, "properties": {"description": "Dornbusch: 1645-07-16<br><a href='https://oldnews.peterkrantz.se/post/522'>Vtur Hans Excell. Herr Gustaff Horns HufwudQuarteer Fielckingen den I6. Julij.</a>", "name": "Dornbusch", "time": "1645-07-16", "url": "https://oldnews.peterkrantz.se/post/522"}}, {"type": "Feature", "geometry": {"type": "Point", "coordinates": [16.373064, 48.20833]}, "properties": {"description": "Wien: 1645-05-17<br><a href='https://oldnews.peterkrantz.se/post/344'>Copia aff Hans Excell. Feltm. Her Linnar Torstensons eghit Breeff skrifwit til \u00d6fwersten Nierod Commendanten i Grosz Glogaw sub dato Mistelbach den 8. Apr. I645 Item.</a>", "name": "Wien", "time": "1645-05-17", "url": "https://oldnews.peterkrantz.se/post/344"}}, {"type": "Feature", "geometry": {"type": "Point", "coordinates": [13.466666666667, 48.566666666667]}, "properties": {"description": "Passau: 1645-04-19<br><a href='https://oldnews.peterkrantz.se/post/310'>Fr\u00e5n Hamborg den I9. Apr.</a>", "name": "Passau", "time": "1645-04-19", "url": "https://oldnews.peterkrantz.se/post/310"}}, {"type": "Feature", "geometry": {"type": "Point", "coordinates": [14.0, 50.0]}, "properties": {"description": "B\u00f6hmen: 1645-09-03<br><a href='https://oldnews.peterkrantz.se/post/680'></a>", "name": "B\u00f6hmen", "time": "1645-09-03", "url": "https://oldnews.peterkrantz.se/post/680"}}, {"type": "Feature", "geometry": {"type": "Point", "coordinates": [12.25, 57.105555555556]}, "properties": {"description": "Varberg: 1645-09-13<br><a href='https://oldnews.peterkrantz.se/post/147'>Fr\u00e5n G\u00f6teborg den I3 Sep.</a>", "name": "Varberg", "time": "1645-09-13", "url": "https://oldnews.peterkrantz.se/post/147"}}, {"type": "Feature", "geometry": {"type": "Point", "coordinates": [16.033333333333, 56.25]}, "properties": {"description": "Kristianopel: 1645-08-27<br><a href='https://oldnews.peterkrantz.se/post/577'>Fr\u00e5n Calmar den 27. Aug.</a>", "name": "Kristianopel", "time": "1645-08-27", "url": "https://oldnews.peterkrantz.se/post/577"}}, {"type": "Feature", "geometry": {"type": "Point", "coordinates": [16.373064, 48.20833]}, "properties": {"description": "Wien: 1645-09-27<br><a href='https://oldnews.peterkrantz.se/post/668'>Fr\u00e5n Hamborg den 27. Sept.</a>", "name": "Wien", "time": "1645-09-27", "url": "https://oldnews.peterkrantz.se/post/668"}}, {"type": "Feature", "geometry": {"type": "Point", "coordinates": [9.2166666666667, 49.15]}, "properties": {"description": "Heilbronn: 1645-08-30<br><a href='https://oldnews.peterkrantz.se/post/611'>Fr\u00e5n Hamborg den 30 Aug.</a>", "name": "Heilbronn", "time": "1645-08-30", "url": "https://oldnews.peterkrantz.se/post/611"}}, {"type": "Feature", "geometry": {"type": "Point", "coordinates": [12.7, 56.05]}, "properties": {"description": "Helsingborg: 1645-01-26<br><a href='https://oldnews.peterkrantz.se/post/24'>Ifr\u00e5n Vstede den 26. Jan.</a>", "name": "Helsingborg", "time": "1645-01-26", "url": "https://oldnews.peterkrantz.se/post/24"}}, {"type": "Feature", "geometry": {"type": "Point", "coordinates": [14.474722222222, 48.974722222222]}, "properties": {"description": "\u010cesk\u00e9 Bud\u011bjovice: 1645-06-28<br><a href='https://oldnews.peterkrantz.se/post/491'>Fr\u00e5n Hamborg den 28. Junij.</a>", "name": "\u010cesk\u00e9 Bud\u011bjovice", "time": "1645-06-28", "url": "https://oldnews.peterkrantz.se/post/491"}}, {"type": "Feature", "geometry": {"type": "Point", "coordinates": [12.568888888889, 55.676111111111]}, "properties": {"description": "K\u00f6penhamn: 1645-10-25<br><a href='https://oldnews.peterkrantz.se/post/712'>Fr\u00e5n K\u00f6penhambn den 25. Oct.</a>", "name": "K\u00f6penhamn", "time": "1645-10-25", "url": "https://oldnews.peterkrantz.se/post/712"}}, {"type": "Feature", "geometry": {"type": "Point", "coordinates": [14.15, 56.033333333333]}, "properties": {"description": "Kristianstad: 1645-06-02<br><a href='https://oldnews.peterkrantz.se/post/387'>Vthur Hans Excell. H. Gustaff Horns HufwudQuarter Fielckingen den 2. Junij.</a>", "name": "Kristianstad", "time": "1645-06-02", "url": "https://oldnews.peterkrantz.se/post/387"}}, {"type": "Feature", "geometry": {"type": "Point", "coordinates": [15.003024549245, 49.144110393651]}, "properties": {"description": "Jind\u0159ich\u016fv Hradec: 1645-03-19<br><a href='https://oldnews.peterkrantz.se/post/221'>Fr\u00e5n Hamborg den I9. Martij.</a>", "name": "Jind\u0159ich\u016fv Hradec", "time": "1645-03-19", "url": "https://oldnews.peterkrantz.se/post/221"}}, {"type": "Feature", "geometry": {"type": "Point", "coordinates": [14.666666666667, 63.0]}, "properties": {"description": "J\u00e4mtland: 1645-12-03<br><a href='https://oldnews.peterkrantz.se/post/784'>Fr\u00e5n Marckaryd den 3. Decemb.</a>", "name": "J\u00e4mtland", "time": "1645-12-03", "url": "https://oldnews.peterkrantz.se/post/784"}}, {"type": "Feature", "geometry": {"type": "Point", "coordinates": [13.733333333333, 51.033333333333]}, "properties": {"description": "Dresden: 1645-06-21<br><a href='https://oldnews.peterkrantz.se/post/493'>Fr\u00e5n Leipzig den 2I. Junij.</a>", "name": "Dresden", "time": "1645-06-21", "url": "https://oldnews.peterkrantz.se/post/493"}}, {"type": "Feature", "geometry": {"type": "Point", "coordinates": [14.421388888889, 50.088611111111]}, "properties": {"description": "Prag: 1645-03-09<br><a href='https://oldnews.peterkrantz.se/post/190'>Ifr\u00e5n L\u00fcbeck den 9.Martij.</a>", "name": "Prag", "time": "1645-03-09", "url": "https://oldnews.peterkrantz.se/post/190"}}, {"type": "Feature", "geometry": {"type": "Point", "coordinates": [9.3833333333333, 53.7]}, "properties": {"description": "Drochtersen: 1645-07-19<br><a href='https://oldnews.peterkrantz.se/post/537'>Fr\u00e5n Hamborg den I9.Julij.</a>", "name": "Drochtersen", "time": "1645-07-19", "url": "https://oldnews.peterkrantz.se/post/537"}}, {"type": "Feature", "geometry": {"type": "Point", "coordinates": [10.5, 48.85]}, "properties": {"description": "N\u00f6rdlingen: 1645-08-05<br><a href='https://oldnews.peterkrantz.se/post/564'>Fr\u00e5n Hamborg den 5. Augusti.</a>", "name": "N\u00f6rdlingen", "time": "1645-08-05", "url": "https://oldnews.peterkrantz.se/post/564"}}, {"type": "Feature", "geometry": {"type": "Point", "coordinates": [11.75, 55.5]}, "properties": {"description": "Sj\u00e4lland: 1645-04-08<br><a href='https://oldnews.peterkrantz.se/post/259'>Fr\u00e5n Helsingborg den 8. April.</a>", "name": "Sj\u00e4lland", "time": "1645-04-08", "url": "https://oldnews.peterkrantz.se/post/259"}}, {"type": "Feature", "geometry": {"type": "Point", "coordinates": [10.0, 53.55]}, "properties": {"description": "Hamburg: 1645-04-09<br><a href='https://oldnews.peterkrantz.se/post/288'>Fr\u00e5n Hamborg den 9. April.</a>", "name": "Hamburg", "time": "1645-04-09", "url": "https://oldnews.peterkrantz.se/post/288"}}, {"type": "Feature", "geometry": {"type": "Point", "coordinates": [3.92727, 51.22113]}, "properties": {"description": "Fort Moerspui: 1645-10-04<br><a href='https://oldnews.peterkrantz.se/post/696'>Fr\u00e5n Hamborg den 4.Octob.</a>", "name": "Fort Moerspui", "time": "1645-10-04", "url": "https://oldnews.peterkrantz.se/post/696"}}, {"type": "Feature", "geometry": {"type": "Point", "coordinates": [16.373064, 48.20833]}, "properties": {"description": "Wien: 1645-04-12<br><a href='https://oldnews.peterkrantz.se/post/298'>Fr\u00e5n Hamborg den I2. April.</a>", "name": "Wien", "time": "1645-04-12", "url": "https://oldnews.peterkrantz.se/post/298"}}, {"type": "Feature", "geometry": {"type": "Point", "coordinates": [4.4, 51.216666666667]}, "properties": {"description": "Antwerpen: 1645-01-01<br><a href='https://oldnews.peterkrantz.se/post/85'>Fr\u00e5n Ambsterdam den I. Jan.</a>", "name": "Antwerpen", "time": "1645-01-01", "url": "https://oldnews.peterkrantz.se/post/85"}}, {"type": "Feature", "geometry": {"type": "Point", "coordinates": [9.2166666666667, 49.15]}, "properties": {"description": "Heilbronn: 1645-09-13<br><a href='https://oldnews.peterkrantz.se/post/634'>Fr\u00e5n Hambrog den I3. Sept.</a>", "name": "Heilbronn", "time": "1645-09-13", "url": "https://oldnews.peterkrantz.se/post/634"}}, {"type": "Feature", "geometry": {"type": "Point", "coordinates": [9.6644444444444, 54.304444444444]}, "properties": {"description": "Rendsburg: 1645-06-28<br><a href='https://oldnews.peterkrantz.se/post/491'>Fr\u00e5n Hamborg den 28. Junij.</a>", "name": "Rendsburg", "time": "1645-06-28", "url": "https://oldnews.peterkrantz.se/post/491"}}, {"type": "Feature", "geometry": {"type": "Point", "coordinates": [15.419166666667, 51.027222222222]}, "properties": {"description": "Gryf\u00f3w \u015al\u0105ski: 1645-12-06<br><a href='https://oldnews.peterkrantz.se/post/803'>Fr\u00e5n Leipzig den 6. Decemb.</a>", "name": "Gryf\u00f3w \u015al\u0105ski", "time": "1645-12-06", "url": "https://oldnews.peterkrantz.se/post/803"}}, {"type": "Feature", "geometry": {"type": "Point", "coordinates": [3.5272222222222, 50.983333333333]}, "properties": {"description": "Deinze: 1645-10-04<br><a href='https://oldnews.peterkrantz.se/post/696'>Fr\u00e5n Hamborg den 4.Octob.</a>", "name": "Deinze", "time": "1645-10-04", "url": "https://oldnews.peterkrantz.se/post/696"}}, {"type": "Feature", "geometry": {"type": "Point", "coordinates": [12.133333333333, 54.083333333333]}, "properties": {"description": "Rostock: 1645-08-23<br><a href='https://oldnews.peterkrantz.se/post/601'>Fr\u00e5n Hamborg den 23. Auguszt.</a>", "name": "Rostock", "time": "1645-08-23", "url": "https://oldnews.peterkrantz.se/post/601"}}, {"type": "Feature", "geometry": {"type": "Point", "coordinates": [15.831944444444, 50.209166666667]}, "properties": {"description": "Hradec Kr\u00e1lov\u00e9: 1645-11-08<br><a href='https://oldnews.peterkrantz.se/post/744'>Fr\u00e5n Hamborg den 8. Novemb.</a>", "name": "Hradec Kr\u00e1lov\u00e9", "time": "1645-11-08", "url": "https://oldnews.peterkrantz.se/post/744"}}, {"type": "Feature", "geometry": {"type": "Point", "coordinates": [12.7, 56.05]}, "properties": {"description": "Helsingborg: 1645-06-29<br><a href='https://oldnews.peterkrantz.se/post/467'>Fr\u00e5n Helsingborg den 29. Junij.</a>", "name": "Helsingborg", "time": "1645-06-29", "url": "https://oldnews.peterkrantz.se/post/467"}}, {"type": "Feature", "geometry": {"type": "Point", "coordinates": [4.5, 51.0]}, "properties": {"description": "Flandern: 1645-10-18<br><a href='https://oldnews.peterkrantz.se/post/772'>Fr\u00e5n Hamborg den I8. Octob.</a>", "name": "Flandern", "time": "1645-10-18", "url": "https://oldnews.peterkrantz.se/post/772"}}, {"type": "Feature", "geometry": {"type": "Point", "coordinates": [18.070555555556, 59.325833333333]}, "properties": {"description": "Storkyrkan: 1645-05-13<br><a href='https://oldnews.peterkrantz.se/post/230'>Vthur Muszkow den I3. Maij.</a>", "name": "Storkyrkan", "time": "1645-05-13", "url": "https://oldnews.peterkrantz.se/post/230"}}, {"type": "Feature", "geometry": {"type": "Point", "coordinates": [9.1333333333333, 53.483333333333]}, "properties": {"description": "Bremerv\u00f6rde: 1645-03-19<br><a href='https://oldnews.peterkrantz.se/post/239'>Ett annat fr\u00e5n Hamborg den I9. Martij.</a>", "name": "Bremerv\u00f6rde", "time": "1645-03-19", "url": "https://oldnews.peterkrantz.se/post/239"}}, {"type": "Feature", "geometry": {"type": "Point", "coordinates": [12.718611111111, 59.040277777778]}, "properties": {"description": "\u00c5m\u00e5l: 1645-02-11<br><a href='https://oldnews.peterkrantz.se/post/112'>Extract Skrifwelse ifr\u00e5n \u00c5m\u00e5la p\u00e5 Daal/ den II. Febr.</a>", "name": "\u00c5m\u00e5l", "time": "1645-02-11", "url": "https://oldnews.peterkrantz.se/post/112"}}, {"type": "Feature", "geometry": {"type": "Point", "coordinates": [-1.0, 41.0]}, "properties": {"description": "Aragonien: 1645-04-19<br><a href='https://oldnews.peterkrantz.se/post/175'>Fr\u00e5n Hamborg den I9. Apr.</a>", "name": "Aragonien", "time": "1645-04-19", "url": "https://oldnews.peterkrantz.se/post/175"}}, {"type": "Feature", "geometry": {"type": "Point", "coordinates": [9.6644444444444, 54.304444444444]}, "properties": {"description": "Rendsburg: 1645-04-09<br><a href='https://oldnews.peterkrantz.se/post/288'>Fr\u00e5n Hamborg den 9. April.</a>", "name": "Rendsburg", "time": "1645-04-09", "url": "https://oldnews.peterkrantz.se/post/288"}}, {"type": "Feature", "geometry": {"type": "Point", "coordinates": [9.1333333333333, 53.483333333333]}, "properties": {"description": "Bremerv\u00f6rde: 1645-02-19<br><a href='https://oldnews.peterkrantz.se/post/174'>Fr\u00e5 Hamborg den I9. Febr.</a>", "name": "Bremerv\u00f6rde", "time": "1645-02-19", "url": "https://oldnews.peterkrantz.se/post/174"}}, {"type": "Feature", "geometry": {"type": "Point", "coordinates": [14.160555555556, 57.782777777778]}, "properties": {"description": "J\u00f6nk\u00f6ping: 1645-06-13<br><a href='https://oldnews.peterkrantz.se/post/276'>Fr\u00e5n J\u00f6nk\u00f6ping den I3. Junij.</a>", "name": "J\u00f6nk\u00f6ping", "time": "1645-06-13", "url": "https://oldnews.peterkrantz.se/post/276"}}, {"type": "Feature", "geometry": {"type": "Point", "coordinates": [9.4219444444444, 53.791666666667]}, "properties": {"description": "Gl\u00fcckstadt: 1645-08-16<br><a href='https://oldnews.peterkrantz.se/post/571'>Fr\u00e5n Gi\u00f6tenborg den I6. August.</a>", "name": "Gl\u00fcckstadt", "time": "1645-08-16", "url": "https://oldnews.peterkrantz.se/post/571"}}, {"type": "Feature", "geometry": {"type": "Point", "coordinates": [-9.1666666666667, 38.716666666667]}, "properties": {"description": "Lissabon: 1645-05-02<br><a href='https://oldnews.peterkrantz.se/post/512'>Fr\u00e5n Liszbona i Portugal den 2. Maij.</a>", "name": "Lissabon", "time": "1645-05-02", "url": "https://oldnews.peterkrantz.se/post/512"}}, {"type": "Feature", "geometry": {"type": "Point", "coordinates": [18.286111111111, 57.635416666667]}, "properties": {"description": "Visborg: 1645-10-24<br><a href='https://oldnews.peterkrantz.se/post/714'>Fr\u00e5n Gottland den 24. Octob.</a>", "name": "Visborg", "time": "1645-10-24", "url": "https://oldnews.peterkrantz.se/post/714"}}, {"type": "Feature", "geometry": {"type": "Point", "coordinates": [4.0539, 51.3158]}, "properties": {"description": "Hulst: 1645-06-17<br><a href='https://oldnews.peterkrantz.se/post/463'>Fr\u00e5n Amsterdam den I7. Junij.</a>", "name": "Hulst", "time": "1645-06-17", "url": "https://oldnews.peterkrantz.se/post/463"}}, {"type": "Feature", "geometry": {"type": "Point", "coordinates": [9.2166666666667, 49.15]}, "properties": {"description": "Heilbronn: 1645-08-23<br><a href='https://oldnews.peterkrantz.se/post/601'>Fr\u00e5n Hamborg den 23. Auguszt.</a>", "name": "Heilbronn", "time": "1645-08-23", "url": "https://oldnews.peterkrantz.se/post/601"}}, {"type": "Feature", "geometry": {"type": "Point", "coordinates": [14.0, 50.0]}, "properties": {"description": "B\u00f6hmen: 1645-06-28<br><a href='https://oldnews.peterkrantz.se/post/491'>Fr\u00e5n Hamborg den 28. Junij.</a>", "name": "B\u00f6hmen", "time": "1645-06-28", "url": "https://oldnews.peterkrantz.se/post/491"}}, {"type": "Feature", "geometry": {"type": "Point", "coordinates": [11.979166666667, 57.872222222222]}, "properties": {"description": "Kung\u00e4lv: 1645-08-13<br><a href='https://oldnews.peterkrantz.se/post/562'>Et annat ifr\u00e5n G\u00f6teborg den I3. Augusti.</a>", "name": "Kung\u00e4lv", "time": "1645-08-13", "url": "https://oldnews.peterkrantz.se/post/562"}}, {"type": "Feature", "geometry": {"type": "Point", "coordinates": [7.6333333333333, 51.966666666667]}, "properties": {"description": "M\u00fcnster: 1645-11-01<br><a href='https://oldnews.peterkrantz.se/post/762'>Fr\u00e5n N\u00f6rnberg den I. Nov.</a>", "name": "M\u00fcnster", "time": "1645-11-01", "url": "https://oldnews.peterkrantz.se/post/762"}}, {"type": "Feature", "geometry": {"type": "Point", "coordinates": [-53.0, -11.0]}, "properties": {"description": "Brasilien: 1645-12-02<br><a href='https://oldnews.peterkrantz.se/post/792'>Fr\u00e5n Amsterdam den 2. Decemb.</a>", "name": "Brasilien", "time": "1645-12-02", "url": "https://oldnews.peterkrantz.se/post/792"}}, {"type": "Feature", "geometry": {"type": "Point", "coordinates": [12.158333333333, 58.033333333333]}, "properties": {"description": "L\u00f6d\u00f6se: 1645-02-06<br><a href='https://oldnews.peterkrantz.se/post/107'>Extract Skrifwelse ifr\u00e5 Skara den 6 Febr. I645.</a>", "name": "L\u00f6d\u00f6se", "time": "1645-02-06", "url": "https://oldnews.peterkrantz.se/post/107"}}, {"type": "Feature", "geometry": {"type": "Point", "coordinates": [15.590555555556, 49.400277777778]}, "properties": {"description": "Jihlava: 1645-04-16<br><a href='https://oldnews.peterkrantz.se/post/280'>Fr\u00e5n Sietin den 6. April. st. vet.</a>", "name": "Jihlava", "time": "1645-04-16", "url": "https://oldnews.peterkrantz.se/post/280"}}, {"type": "Feature", "geometry": {"type": "Point", "coordinates": [12.383333333333, 51.333333333333]}, "properties": {"description": "Leipzig: 1645-09-27<br><a href='https://oldnews.peterkrantz.se/post/684'>Fr\u00e5n Leipzig den 27. Sept.</a>", "name": "Leipzig", "time": "1645-09-27", "url": "https://oldnews.peterkrantz.se/post/684"}}, {"type": "Feature", "geometry": {"type": "Point", "coordinates": [9.15, 53.1]}, "properties": {"description": "Ottersberg: 1645-03-19<br><a href='https://oldnews.peterkrantz.se/post/209'>Ett annat fr\u00e5n Hamborg den I9. Martij.</a>", "name": "Ottersberg", "time": "1645-03-19", "url": "https://oldnews.peterkrantz.se/post/209"}}, {"type": "Feature", "geometry": {"type": "Point", "coordinates": [18.068611111111, 59.329444444444]}, "properties": {"description": "Stockholm: 1645-08-20<br><a href='https://oldnews.peterkrantz.se/post/566'>Fr\u00e5n Calmar den 20. Aug.</a>", "name": "Stockholm", "time": "1645-08-20", "url": "https://oldnews.peterkrantz.se/post/566"}}, {"type": "Feature", "geometry": {"type": "Point", "coordinates": [11.913889, 51.954722]}, "properties": {"description": "Saale: 1645-12-06<br><a href='https://oldnews.peterkrantz.se/post/803'>Fr\u00e5n Leipzig den 6. Decemb.</a>", "name": "Saale", "time": "1645-12-06", "url": "https://oldnews.peterkrantz.se/post/803"}}, {"type": "Feature", "geometry": {"type": "Point", "coordinates": [10.0, 53.55]}, "properties": {"description": "Hamburg: 1645-09-20<br><a href='https://oldnews.peterkrantz.se/post/657'>Fr\u00e5n Hamborg den 20 Sept.</a>", "name": "Hamburg", "time": "1645-09-20", "url": "https://oldnews.peterkrantz.se/post/657"}}, {"type": "Feature", "geometry": {"type": "Point", "coordinates": [8.0430555555556, 52.278888888889]}, "properties": {"description": "Osnabr\u00fcck: 1645-09-06<br><a href='https://oldnews.peterkrantz.se/post/621'>Fr\u00e5n Hamborg den 6 Sept.</a>", "name": "Osnabr\u00fcck", "time": "1645-09-06", "url": "https://oldnews.peterkrantz.se/post/621"}}, {"type": "Feature", "geometry": {"type": "Point", "coordinates": [9.08, 54.08]}, "properties": {"description": "Kreis Dithmarschen: 1645-03-10<br><a href='https://oldnews.peterkrantz.se/post/202'>Ifr\u00e5n Hamborg den I0. Martij.</a>", "name": "Kreis Dithmarschen", "time": "1645-03-10", "url": "https://oldnews.peterkrantz.se/post/202"}}, {"type": "Feature", "geometry": {"type": "Point", "coordinates": [10.18611111, 54.39138889]}, "properties": {"description": "Friedrichsort: 1645-04-09<br><a href='https://oldnews.peterkrantz.se/post/288'>Fr\u00e5n Hamborg den 9. April.</a>", "name": "Friedrichsort", "time": "1645-04-09", "url": "https://oldnews.peterkrantz.se/post/288"}}, {"type": "Feature", "geometry": {"type": "Point", "coordinates": [13.005555555556, 51.560277777778]}, "properties": {"description": "Torgau: 1645-08-23<br><a href='https://oldnews.peterkrantz.se/post/268'>Fr\u00e5n Leipzig den 23. Aug.</a>", "name": "Torgau", "time": "1645-08-23", "url": "https://oldnews.peterkrantz.se/post/268"}}, {"type": "Feature", "geometry": {"type": "Point", "coordinates": [14.423888888889, 51.181388888889]}, "properties": {"description": "Bautzen: 1645-09-13<br><a href='https://oldnews.peterkrantz.se/post/634'>Fr\u00e5n Hambrog den I3. Sept.</a>", "name": "Bautzen", "time": "1645-09-13", "url": "https://oldnews.peterkrantz.se/post/634"}}, {"type": "Feature", "geometry": {"type": "Point", "coordinates": [14.657835974031, 49.414485338494]}, "properties": {"description": "T\u00e1bor: 1645-04-08<br><a href='https://oldnews.peterkrantz.se/post/296'>Fr\u00e5n Praag den 8 Apr.</a>", "name": "T\u00e1bor", "time": "1645-04-08", "url": "https://oldnews.peterkrantz.se/post/296"}}, {"type": "Feature", "geometry": {"type": "Point", "coordinates": [4.313035, 52.079631]}, "properties": {"description": "Generalstaterna: 1645-09-30<br><a href='https://oldnews.peterkrantz.se/post/663'>Fr\u00e5n Amsterdam den 30. Sep.</a>", "name": "Generalstaterna", "time": "1645-09-30", "url": "https://oldnews.peterkrantz.se/post/663"}}, {"type": "Feature", "geometry": {"type": "Point", "coordinates": [17.0, 49.5]}, "properties": {"description": "M\u00e4hren: 1645-08-31<br><a href='https://oldnews.peterkrantz.se/post/619'>Fr\u00e5n Leipzig den 3I. Aug.</a>", "name": "M\u00e4hren", "time": "1645-08-31", "url": "https://oldnews.peterkrantz.se/post/619"}}, {"type": "Feature", "geometry": {"type": "Point", "coordinates": [11.616666666667, 52.133333333333]}, "properties": {"description": "Magdeburg: 1645-08-23<br><a href='https://oldnews.peterkrantz.se/post/268'>Fr\u00e5n Leipzig den 23. Aug.</a>", "name": "Magdeburg", "time": "1645-08-23", "url": "https://oldnews.peterkrantz.se/post/268"}}, {"type": "Feature", "geometry": {"type": "Point", "coordinates": [7.6333333333333, 51.966666666667]}, "properties": {"description": "M\u00fcnster: 1645-09-06<br><a href='https://oldnews.peterkrantz.se/post/621'>Fr\u00e5n Hamborg den 6 Sept.</a>", "name": "M\u00fcnster", "time": "1645-09-06", "url": "https://oldnews.peterkrantz.se/post/621"}}, {"type": "Feature", "geometry": {"type": "Point", "coordinates": [10.319444444444, 49.070833333333]}, "properties": {"description": "Dinkelsb\u00fchl: 1645-11-21<br><a href='https://oldnews.peterkrantz.se/post/770'>Fr\u00e5n Hamborg den 2I. Novemb.</a>", "name": "Dinkelsb\u00fchl", "time": "1645-11-21", "url": "https://oldnews.peterkrantz.se/post/770"}}, {"type": "Feature", "geometry": {"type": "Point", "coordinates": [13.733333333333, 51.033333333333]}, "properties": {"description": "Dresden: 1645-08-09<br><a href='https://oldnews.peterkrantz.se/post/597'>Fr\u00e5n Lepzig den 9. Aug.</a>", "name": "Dresden", "time": "1645-08-09", "url": "https://oldnews.peterkrantz.se/post/597"}}, {"type": "Feature", "geometry": {"type": "Point", "coordinates": [12.966666666667, 56.366666666667]}, "properties": {"description": "Hallands\u00e5sen: 1645-01-11<br><a href='https://oldnews.peterkrantz.se/post/37'>Ifr\u00e5n Marckrydh den II. Jan. (1645)</a>", "name": "Hallands\u00e5sen", "time": "1645-01-11", "url": "https://oldnews.peterkrantz.se/post/37"}}, {"type": "Feature", "geometry": {"type": "Point", "coordinates": [6.4872222222222, 48.6]}, "properties": {"description": "Lorraine: 1645-07-12<br><a href='https://oldnews.peterkrantz.se/post/223'>Fr\u00e5n Hamborg den I2. Julij.</a>", "name": "Lorraine", "time": "1645-07-12", "url": "https://oldnews.peterkrantz.se/post/223"}}, {"type": "Feature", "geometry": {"type": "Point", "coordinates": [14.474722222222, 48.974722222222]}, "properties": {"description": "\u010cesk\u00e9 Bud\u011bjovice: 1645-04-08<br><a href='https://oldnews.peterkrantz.se/post/296'>Fr\u00e5n Praag den 8 Apr.</a>", "name": "\u010cesk\u00e9 Bud\u011bjovice", "time": "1645-04-08", "url": "https://oldnews.peterkrantz.se/post/296"}}, {"type": "Feature", "geometry": {"type": "Point", "coordinates": [8.5911111111111, 50.666111111111]}, "properties": {"description": "Hessen: 1645-05-28<br><a href='https://oldnews.peterkrantz.se/post/356'>Ordinari Post Tijdender I645. den 28. Maij. N. 22.</a>", "name": "Hessen", "time": "1645-05-28", "url": "https://oldnews.peterkrantz.se/post/356"}}, {"type": "Feature", "geometry": {"type": "Point", "coordinates": [12.2415666667, 57.1043]}, "properties": {"description": "Varbergs f\u00e4stning: 1645-05-31<br><a href='https://oldnews.peterkrantz.se/post/406'>Fr\u00e5n G\u00f6teborg den 3I. Maij.</a>", "name": "Varbergs f\u00e4stning", "time": "1645-05-31", "url": "https://oldnews.peterkrantz.se/post/406"}}, {"type": "Feature", "geometry": {"type": "Point", "coordinates": [16.366666666667, 56.666666666667]}, "properties": {"description": "Kalmar: 1645-08-13<br><a href='https://oldnews.peterkrantz.se/post/554'>Fr\u00e5n Calmar den I3 Aug.</a>", "name": "Kalmar", "time": "1645-08-13", "url": "https://oldnews.peterkrantz.se/post/554"}}, {"type": "Feature", "geometry": {"type": "Point", "coordinates": [8.4547222222222, 49.236944444444]}, "properties": {"description": "Philippsburg: 1645-10-11<br><a href='https://oldnews.peterkrantz.se/post/706'>Fr\u00e5n Hamborg den II. Octob.</a>", "name": "Philippsburg", "time": "1645-10-11", "url": "https://oldnews.peterkrantz.se/post/706"}}, {"type": "Feature", "geometry": {"type": "Point", "coordinates": [9.2166666666667, 49.15]}, "properties": {"description": "Heilbronn: 1645-09-06<br><a href='https://oldnews.peterkrantz.se/post/621'>Fr\u00e5n Hamborg den 6 Sept.</a>", "name": "Heilbronn", "time": "1645-09-06", "url": "https://oldnews.peterkrantz.se/post/621"}}, {"type": "Feature", "geometry": {"type": "Point", "coordinates": [4.5, 51.0]}, "properties": {"description": "Flandern: 1645-09-16<br><a href='https://oldnews.peterkrantz.se/post/629'>Fr\u00e5n Amsterdam den I6 Sept. St. no.</a>", "name": "Flandern", "time": "1645-09-16", "url": "https://oldnews.peterkrantz.se/post/629"}}, {"type": "Feature", "geometry": {"type": "Point", "coordinates": [9.6113888888889, 47.783055555556]}, "properties": {"description": "Ravensburg: 1645-05-28<br><a href='https://oldnews.peterkrantz.se/post/385'>Fr\u00e5n Hamborg den 28. Maij.</a>", "name": "Ravensburg", "time": "1645-05-28", "url": "https://oldnews.peterkrantz.se/post/385"}}, {"type": "Feature", "geometry": {"type": "Point", "coordinates": [11.966666666667, 57.706944444444]}, "properties": {"description": "G\u00f6teborg: 1645-07-16<br><a href='https://oldnews.peterkrantz.se/post/506'>Fr\u00e5n G\u00f6teborg den I6. Julij.</a>", "name": "G\u00f6teborg", "time": "1645-07-16", "url": "https://oldnews.peterkrantz.se/post/506"}}, {"type": "Feature", "geometry": {"type": "Point", "coordinates": [16.608333333333, 49.195277777778]}, "properties": {"description": "Brno: 1645-04-16<br><a href='https://oldnews.peterkrantz.se/post/383'>Extract vthur Hans Excell. Feldtm. Herr Linnar  Torstensons Skrifwelse til Gen. Axel Lilie daterat i  HufwudQuarteret K\u00f6ningsFeld widh Brinn den I6. April.</a>", "name": "Brno", "time": "1645-04-16", "url": "https://oldnews.peterkrantz.se/post/383"}}, {"type": "Feature", "geometry": {"type": "Point", "coordinates": [7.6333333333333, 51.966666666667]}, "properties": {"description": "M\u00fcnster: 1645-05-28<br><a href='https://oldnews.peterkrantz.se/post/385'>Fr\u00e5n Hamborg den 28. Maij.</a>", "name": "M\u00fcnster", "time": "1645-05-28", "url": "https://oldnews.peterkrantz.se/post/385"}}, {"type": "Feature", "geometry": {"type": "Point", "coordinates": [-1.2577777777778, 51.751944444444]}, "properties": {"description": "Oxford: 1645-07-24<br><a href='https://oldnews.peterkrantz.se/post/479'>Fr\u00e5n Amsterdam den 24. Julij. st. no.</a>", "name": "Oxford", "time": "1645-07-24", "url": "https://oldnews.peterkrantz.se/post/479"}}, {"type": "Feature", "geometry": {"type": "Point", "coordinates": [28.200555555556, 59.379166666667]}, "properties": {"description": "Narva: 1645-10-12<br><a href='https://oldnews.peterkrantz.se/post/661'>Fr\u00e5n \u00d6rebroo den I2. Octob.</a>", "name": "Narva", "time": "1645-10-12", "url": "https://oldnews.peterkrantz.se/post/661"}}, {"type": "Feature", "geometry": {"type": "Point", "coordinates": [10.0, 56.0]}, "properties": {"description": "Danmark: 1645-04-19<br><a href='https://oldnews.peterkrantz.se/post/310'>Fr\u00e5n Hamborg den I9. Apr.</a>", "name": "Danmark", "time": "1645-04-19", "url": "https://oldnews.peterkrantz.se/post/310"}}, {"type": "Feature", "geometry": {"type": "Point", "coordinates": [13.0, 56.75]}, "properties": {"description": "Halland: 1645-09-24<br><a href='https://oldnews.peterkrantz.se/post/625'>Fr\u00e5n Wardberg den 24. Sept.</a>", "name": "Halland", "time": "1645-09-24", "url": "https://oldnews.peterkrantz.se/post/625"}}, {"type": "Feature", "geometry": {"type": "Point", "coordinates": [7.5977777777778, 50.359722222222]}, "properties": {"description": "Koblenz: 1645-11-01<br><a href='https://oldnews.peterkrantz.se/post/734'>Fr\u00e5n Hamborg den I Novemb.</a>", "name": "Koblenz", "time": "1645-11-01", "url": "https://oldnews.peterkrantz.se/post/734"}}, {"type": "Feature", "geometry": {"type": "Point", "coordinates": [9.1630555555556, 49.230555555556]}, "properties": {"description": "Bad Wimpfen: 1645-10-25<br><a href='https://oldnews.peterkrantz.se/post/725'>Fr\u00e5n Hamborg den 25 Octob.</a>", "name": "Bad Wimpfen", "time": "1645-10-25", "url": "https://oldnews.peterkrantz.se/post/725"}}, {"type": "Feature", "geometry": {"type": "Point", "coordinates": [12.568888888889, 55.676111111111]}, "properties": {"description": "K\u00f6penhamn: 1645-06-29<br><a href='https://oldnews.peterkrantz.se/post/467'>Fr\u00e5n Helsingborg den 29. Junij.</a>", "name": "K\u00f6penhamn", "time": "1645-06-29", "url": "https://oldnews.peterkrantz.se/post/467"}}, {"type": "Feature", "geometry": {"type": "Point", "coordinates": [13.594444444444, 56.450833333333]}, "properties": {"description": "Markaryd: 1645-07-16<br><a href='https://oldnews.peterkrantz.se/post/501'>Fr\u00e5n Marckarydh den. I6 Julij.</a>", "name": "Markaryd", "time": "1645-07-16", "url": "https://oldnews.peterkrantz.se/post/501"}}, {"type": "Feature", "geometry": {"type": "Point", "coordinates": [1.47, 41.81]}, "properties": {"description": "Katalonien: 1645-05-02<br><a href='https://oldnews.peterkrantz.se/post/512'>Fr\u00e5n Liszbona i Portugal den 2. Maij.</a>", "name": "Katalonien", "time": "1645-05-02", "url": "https://oldnews.peterkrantz.se/post/512"}}, {"type": "Feature", "geometry": {"type": "Point", "coordinates": [10.039166666667, 56.456944444444]}, "properties": {"description": "Randers: 1645-01-10<br><a href='https://oldnews.peterkrantz.se/post/63'>Ifr\u00e5n Hamborg den I0. Januarij.</a>", "name": "Randers", "time": "1645-01-10", "url": "https://oldnews.peterkrantz.se/post/63"}}, {"type": "Feature", "geometry": {"type": "Point", "coordinates": [8.3666666666667, 49.216666666667]}, "properties": {"description": "Germersheim: 1645-10-18<br><a href='https://oldnews.peterkrantz.se/post/772'>Fr\u00e5n Hamborg den I8. Octob.</a>", "name": "Germersheim", "time": "1645-10-18", "url": "https://oldnews.peterkrantz.se/post/772"}}, {"type": "Feature", "geometry": {"type": "Point", "coordinates": [-2.5833333333333, 51.45]}, "properties": {"description": "Bristol: 1645-07-22<br><a href='https://oldnews.peterkrantz.se/post/543'>Fr\u00e5n Amsterdam den 22. Julij.</a>", "name": "Bristol", "time": "1645-07-22", "url": "https://oldnews.peterkrantz.se/post/543"}}, {"type": "Feature", "geometry": {"type": "Point", "coordinates": [12.616666666667, 56.033333333333]}, "properties": {"description": "Helsing\u00f6r: 1645-05-15<br><a href='https://oldnews.peterkrantz.se/post/376'>Fr\u00e5n Markarydh den I5. Maij.</a>", "name": "Helsing\u00f6r", "time": "1645-05-15", "url": "https://oldnews.peterkrantz.se/post/376"}}, {"type": "Feature", "geometry": {"type": "Point", "coordinates": [12.25, 57.105555555556]}, "properties": {"description": "Varberg: 1645-06-11<br><a href='https://oldnews.peterkrantz.se/post/416'>Fr\u00e5n G\u00f6teborg den II. Junij.</a>", "name": "Varberg", "time": "1645-06-11", "url": "https://oldnews.peterkrantz.se/post/416"}}, {"type": "Feature", "geometry": {"type": "Point", "coordinates": [12.85777778, 56.67166667]},